"city","state_id","state_name","county_fips","county_name","lat","lng"
"Dallas","TX","Texas",48113,"Dallas",32.7935,-96.7667
"Houston","TX","Texas",48201,"Harris",29.786,-95.3885
"San Antonio","TX","Texas",48029,"Bexar",29.4632,-98.5238
"Austin","TX","Texas",48453,"Travis",30.3005,-97.7522
"Fort Worth","TX","Texas",48439,"Tarrant",32.7817,-97.3474
"McAllen","TX","Texas",48215,"Hidalgo",26.2252,-98.2467
"El Paso","TX","Texas",48141,"El Paso",31.8476,-106.43
"Denton","TX","Texas",48121,"Denton",33.2175,-97.1418
"Arlington","TX","Texas",48439,"Tarrant",32.6998,-97.125
"Corpus Christi","TX","Texas",48355,"Nueces",27.7254,-97.3767
"The Woodlands","TX","Texas",48339,"Montgomery",30.1738,-95.5134
"Plano","TX","Texas",48085,"Collin",33.0502,-96.7486
"Lubbock","TX","Texas",48303,"Lubbock",33.5657,-101.8879
"Laredo","TX","Texas",48479,"Webb",27.5625,-99.4874
"Irving","TX","Texas",48113,"Dallas",32.8583,-96.9702
"McKinney","TX","Texas",48085,"Collin",33.2016,-96.667
"Garland","TX","Texas",48113,"Dallas",32.91,-96.6304
"Killeen","TX","Texas",48027,"Bell",31.0753,-97.7297
"Brownsville","TX","Texas",48061,"Cameron",25.9975,-97.458
"College Station","TX","Texas",48041,"Brazos",30.5852,-96.2959
"Amarillo","TX","Texas",48375,"Potter",35.1984,-101.8316
"Grand Prairie","TX","Texas",48113,"Dallas",32.6871,-97.0208
"Frisco","TX","Texas",48085,"Collin",33.156,-96.8216
"Waco","TX","Texas",48309,"McLennan",31.5599,-97.1882
"Port Arthur","TX","Texas",48245,"Jefferson",29.8554,-93.9264
"Pasadena","TX","Texas",48201,"Harris",29.6575,-95.1498
"Mesquite","TX","Texas",48113,"Dallas",32.7602,-96.5865
"Harlingen","TX","Texas",48061,"Cameron",26.1916,-97.6977
"Tyler","TX","Texas",48423,"Smith",32.3184,-95.3062
"Beaumont","TX","Texas",48245,"Jefferson",30.0849,-94.1451
"Odessa","TX","Texas",48135,"Ector",31.8801,-102.3448
"Carrollton","TX","Texas",48113,"Dallas",32.989,-96.8999
"Midland","TX","Texas",48329,"Midland",32.0243,-102.1147
"Abilene","TX","Texas",48441,"Taylor",32.4543,-99.7384
"Pearland","TX","Texas",48039,"Brazoria",29.5581,-95.3218
"Texas City","TX","Texas",48167,"Galveston",29.4154,-94.9682
"Round Rock","TX","Texas",48491,"Williamson",30.527,-97.6642
"Richardson","TX","Texas",48113,"Dallas",32.9716,-96.7093
"Temple","TX","Texas",48027,"Bell",31.1068,-97.3891
"League City","TX","Texas",48167,"Galveston",29.4874,-95.1087
"Sugar Land","TX","Texas",48157,"Fort Bend",29.5935,-95.6358
"Lewisville","TX","Texas",48121,"Denton",33.0454,-96.9815
"Allen","TX","Texas",48085,"Collin",33.1088,-96.6735
"Wichita Falls","TX","Texas",48485,"Wichita",33.9072,-98.5291
"San Angelo","TX","Texas",48451,"Tom Green",31.4424,-100.4504
"Edinburg","TX","Texas",48215,"Hidalgo",26.3196,-98.1597
"Longview","TX","Texas",48183,"Gregg",32.5193,-94.7622
"Conroe","TX","Texas",48339,"Montgomery",30.3238,-95.4824
"New Braunfels","TX","Texas",48091,"Comal",29.6994,-98.1148
"Mission","TX","Texas",48215,"Hidalgo",26.2039,-98.3256
"Bryan","TX","Texas",48041,"Brazos",30.665,-96.3807
"Atascocita","TX","Texas",48201,"Harris",29.9777,-95.1953
"Baytown","TX","Texas",48201,"Harris",29.7587,-94.9671
"Texarkana","TX","Texas",48037,"Bowie",33.45,-94.0847
"Pharr","TX","Texas",48215,"Hidalgo",26.1685,-98.1904
"Flower Mound","TX","Texas",48121,"Denton",33.0343,-97.1146
"Cedar Park","TX","Texas",48491,"Williamson",30.5105,-97.8197
"Missouri City","TX","Texas",48157,"Fort Bend",29.563,-95.5365
"Lake Jackson","TX","Texas",48039,"Brazoria",29.0516,-95.4521
"Mansfield","TX","Texas",48439,"Tarrant",32.569,-97.1213
"San Marcos","TX","Texas",48209,"Hays",29.8734,-97.9356
"North Richland Hills","TX","Texas",48439,"Tarrant",32.8604,-97.218
"Sherman","TX","Texas",48181,"Grayson",33.6273,-96.6221
"Georgetown","TX","Texas",48491,"Williamson",30.666,-97.6966
"Victoria","TX","Texas",48469,"Victoria",28.8287,-96.9849
"Pflugerville","TX","Texas",48453,"Travis",30.4515,-97.6018
"Rowlett","TX","Texas",48113,"Dallas",32.9155,-96.5489
"Spring","TX","Texas",48201,"Harris",30.0613,-95.383
"Euless","TX","Texas",48439,"Tarrant",32.8508,-97.08
"Leander","TX","Texas",48491,"Williamson",30.5728,-97.8618
"DeSoto","TX","Texas",48113,"Dallas",32.5992,-96.8633
"Wylie","TX","Texas",48085,"Collin",33.0362,-96.5161
"Galveston","TX","Texas",48167,"Galveston",29.2484,-94.8913
"Grapevine","TX","Texas",48439,"Tarrant",32.9343,-97.0742
"Bedford","TX","Texas",48439,"Tarrant",32.8464,-97.135
"Cedar Hill","TX","Texas",48113,"Dallas",32.581,-96.9591
"Burleson","TX","Texas",48251,"Johnson",32.517,-97.3344
"Rockwall","TX","Texas",48397,"Rockwall",32.9169,-96.4374
"Haltom City","TX","Texas",48439,"Tarrant",32.8176,-97.2707
"Huntsville","TX","Texas",48471,"Walker",30.7009,-95.5567
"Keller","TX","Texas",48439,"Tarrant",32.9335,-97.2256
"Kyle","TX","Texas",48209,"Hays",29.9932,-97.8852
"Little Elm","TX","Texas",48121,"Denton",33.1858,-96.9295
"The Colony","TX","Texas",48121,"Denton",33.0925,-96.8976
"Coppell","TX","Texas",48113,"Dallas",32.9639,-96.9903
"Channelview","TX","Texas",48201,"Harris",29.7914,-95.1144
"Schertz","TX","Texas",48029,"Bexar",29.565,-98.2535
"Lancaster","TX","Texas",48113,"Dallas",32.5922,-96.7739
"Friendswood","TX","Texas",48167,"Galveston",29.511,-95.1981
"Duncanville","TX","Texas",48113,"Dallas",32.646,-96.9127
"Weslaco","TX","Texas",48215,"Hidalgo",26.1599,-97.9877
"Hurst","TX","Texas",48439,"Tarrant",32.8353,-97.1809
"Waxahachie","TX","Texas",48139,"Ellis",32.4035,-96.8446
"Mission Bend","TX","Texas",48157,"Fort Bend",29.6948,-95.6658
"Rosenberg","TX","Texas",48157,"Fort Bend",29.5456,-95.8223
"Farmers Branch","TX","Texas",48113,"Dallas",32.9272,-96.8804
"La Porte","TX","Texas",48201,"Harris",29.6689,-95.0484
"Copperas Cove","TX","Texas",48099,"Coryell",31.1192,-97.914
"San Juan","TX","Texas",48215,"Hidalgo",26.1903,-98.152
"Del Rio","TX","Texas",48465,"Val Verde",29.3708,-100.8801
"Socorro","TX","Texas",48141,"El Paso",31.6383,-106.2601
"Lufkin","TX","Texas",48005,"Angelina",31.3217,-94.7277
"Deer Park","TX","Texas",48201,"Harris",29.6898,-95.1151
"Midlothian","TX","Texas",48139,"Ellis",32.4669,-96.989
"Timberwood Park","TX","Texas",48029,"Bexar",29.6995,-98.4838
"Nacogdoches","TX","Texas",48347,"Nacogdoches",31.6134,-94.6528
"Harker Heights","TX","Texas",48027,"Bell",31.0572,-97.6446
"West Odessa","TX","Texas",48135,"Ector",31.8389,-102.5003
"Cibolo","TX","Texas",48187,"Guadalupe",29.5634,-98.2115
"Cleburne","TX","Texas",48251,"Johnson",32.3568,-97.4151
"Southlake","TX","Texas",48439,"Tarrant",32.9545,-97.1503
"Canyon Lake","TX","Texas",48091,"Comal",29.8761,-98.2611
"Weatherford","TX","Texas",48367,"Parker",32.7536,-97.7723
"Seguin","TX","Texas",48187,"Guadalupe",29.5891,-97.9676
"Prosper","TX","Texas",48085,"Collin",33.2394,-96.8087
"Eagle Pass","TX","Texas",48323,"Maverick",28.7125,-100.484
"Greenville","TX","Texas",48231,"Hunt",33.1116,-96.1099
"Balch Springs","TX","Texas",48113,"Dallas",32.7194,-96.6151
"Converse","TX","Texas",48029,"Bexar",29.5091,-98.3084
"Alvin","TX","Texas",48039,"Brazoria",29.3872,-95.2938
"Hutto","TX","Texas",48491,"Williamson",30.5396,-97.544
"Sachse","TX","Texas",48113,"Dallas",32.9726,-96.5793
"Big Spring","TX","Texas",48227,"Howard",32.2389,-101.4799
"Colleyville","TX","Texas",48439,"Tarrant",32.8913,-97.1486
"Cloverleaf","TX","Texas",48201,"Harris",29.7882,-95.1724
"Kingsville","TX","Texas",48273,"Kleberg",27.5094,-97.861
"University Park","TX","Texas",48113,"Dallas",32.8506,-96.7937
"San Benito","TX","Texas",48061,"Cameron",26.1298,-97.644
"Fort Hood","TX","Texas",48099,"Coryell",31.1357,-97.7834
"Corsicana","TX","Texas",48349,"Navarro",32.0824,-96.4665
"Paris","TX","Texas",48277,"Lamar",33.6688,-95.546
"Denison","TX","Texas",48181,"Grayson",33.7672,-96.5808
"Benbrook","TX","Texas",48439,"Tarrant",32.6788,-97.4637
"Kerrville","TX","Texas",48265,"Kerr",30.0398,-99.132
"Fresno","TX","Texas",48157,"Fort Bend",29.5357,-95.4696
"Saginaw","TX","Texas",48439,"Tarrant",32.8657,-97.3654
"Watauga","TX","Texas",48439,"Tarrant",32.8719,-97.2515
"Brushy Creek","TX","Texas",48491,"Williamson",30.5128,-97.7386
"Belton","TX","Texas",48027,"Bell",31.0525,-97.479
"Marshall","TX","Texas",48203,"Harrison",32.537,-94.3515
"Forney","TX","Texas",48257,"Kaufman",32.744,-96.4529
"Corinth","TX","Texas",48121,"Denton",33.1434,-97.0682
"Horizon City","TX","Texas",48141,"El Paso",31.6799,-106.1903
"Katy","TX","Texas",48201,"Harris",29.7905,-95.8353
"Dickinson","TX","Texas",48167,"Galveston",29.4548,-95.0589
"Murphy","TX","Texas",48085,"Collin",33.0186,-96.6105
"Stephenville","TX","Texas",48143,"Erath",32.2147,-98.2205
"Plainview","TX","Texas",48189,"Hale",34.1911,-101.7235
"Pecan Grove","TX","Texas",48157,"Fort Bend",29.6235,-95.733
"Ennis","TX","Texas",48139,"Ellis",32.3254,-96.6347
"Portland","TX","Texas",48409,"San Patricio",27.8942,-97.3278
"Universal City","TX","Texas",48029,"Bexar",29.5521,-98.3074
"Alamo","TX","Texas",48215,"Hidalgo",26.181,-98.1177
"Angleton","TX","Texas",48039,"Brazoria",29.1721,-95.4293
"Orange","TX","Texas",48361,"Orange",30.1226,-93.7607
"Brownwood","TX","Texas",48049,"Brown",31.7127,-98.9767
"Palestine","TX","Texas",48001,"Anderson",31.7544,-95.6471
"Nederland","TX","Texas",48245,"Jefferson",29.9707,-94.0015
"Lakeway","TX","Texas",48453,"Travis",30.3544,-97.9864
"Cinco Ranch","TX","Texas",48157,"Fort Bend",29.7395,-95.7607
"Seagoville","TX","Texas",48113,"Dallas",32.653,-96.5456
"Steiner Ranch","TX","Texas",48453,"Travis",30.3654,-97.896
"La Marque","TX","Texas",48167,"Galveston",29.3683,-94.9941
"White Settlement","TX","Texas",48439,"Tarrant",32.7554,-97.4605
"Alice","TX","Texas",48249,"Jim Wells",27.7556,-98.0653
"Alton","TX","Texas",48215,"Hidalgo",26.2884,-98.3098
"Crowley","TX","Texas",48439,"Tarrant",32.5781,-97.3585
"Bay City","TX","Texas",48321,"Matagorda",28.9838,-95.9601
"Fate","TX","Texas",48397,"Rockwall",32.943,-96.3858
"Brenham","TX","Texas",48477,"Washington",30.1584,-96.3966
"Boerne","TX","Texas",48259,"Kendall",29.7847,-98.7292
"Bellaire","TX","Texas",48201,"Harris",29.704,-95.4621
"Fulshear","TX","Texas",48157,"Fort Bend",29.693,-95.8804
"Stafford","TX","Texas",48157,"Fort Bend",29.6271,-95.5654
"Gainesville","TX","Texas",48097,"Cooke",33.639,-97.1487
"Terrell","TX","Texas",48257,"Kaufman",32.734,-96.2931
"Groves","TX","Texas",48245,"Jefferson",29.9457,-93.9164
"Pampa","TX","Texas",48179,"Gray",35.5479,-100.9651
"Anna","TX","Texas",48085,"Collin",33.3472,-96.5508
"Donna","TX","Texas",48215,"Hidalgo",26.1468,-98.0559
"Princeton","TX","Texas",48085,"Collin",33.1778,-96.5044
"Humble","TX","Texas",48201,"Harris",29.9921,-95.2655
"Celina","TX","Texas",48085,"Collin",33.3154,-96.7941
"Addison","TX","Texas",48113,"Dallas",32.959,-96.8355
"South Houston","TX","Texas",48201,"Harris",29.6611,-95.2285
"Mercedes","TX","Texas",48215,"Hidalgo",26.1533,-97.9128
"Taylor","TX","Texas",48491,"Williamson",30.5729,-97.4268
"Mount Pleasant","TX","Texas",48449,"Titus",33.1586,-94.9727
"Gatesville","TX","Texas",48099,"Coryell",31.4445,-97.7317
"Aldine","TX","Texas",48201,"Harris",29.9123,-95.3784
"Sulphur Springs","TX","Texas",48223,"Hopkins",33.1421,-95.6122
"Highland Village","TX","Texas",48121,"Denton",33.0897,-97.0615
"Glenn Heights","TX","Texas",48113,"Dallas",32.5506,-96.8548
"Hewitt","TX","Texas",48309,"McLennan",31.452,-97.196
"Live Oak","TX","Texas",48029,"Bexar",29.5545,-98.3404
"Rio Grande City","TX","Texas",48427,"Starr",26.3808,-98.8215
"Uvalde","TX","Texas",48463,"Uvalde",29.2152,-99.7782
"Hereford","TX","Texas",48117,"Deaf Smith",34.8225,-102.4001
"West University Place","TX","Texas",48201,"Harris",29.7157,-95.4321
"Mineral Wells","TX","Texas",48363,"Palo Pinto",32.8169,-98.0776
"Canyon","TX","Texas",48381,"Randall",34.9911,-101.919
"Palmview","TX","Texas",48215,"Hidalgo",26.2318,-98.3823
"Rendon","TX","Texas",48439,"Tarrant",32.5789,-97.2349
"Dumas","TX","Texas",48341,"Moore",35.8613,-101.9642
"Lockhart","TX","Texas",48055,"Caldwell",29.8785,-97.6831
"Buda","TX","Texas",48209,"Hays",30.0758,-97.8487
"Fort Bliss","TX","Texas",48141,"El Paso",31.8396,-106.3747
"Jacksonville","TX","Texas",48073,"Cherokee",31.9642,-95.2617
"Red Oak","TX","Texas",48139,"Ellis",32.5212,-96.7866
"Hidalgo","TX","Texas",48215,"Hidalgo",26.109,-98.2464
"Manor","TX","Texas",48453,"Travis",30.3562,-97.5227
"Wells Branch","TX","Texas",48453,"Travis",30.4433,-97.679
"Forest Hill","TX","Texas",48439,"Tarrant",32.6619,-97.2662
"Beeville","TX","Texas",48025,"Bee",28.4053,-97.749
"Melissa","TX","Texas",48085,"Collin",33.2891,-96.5573
"Port Neches","TX","Texas",48245,"Jefferson",29.9765,-93.9459
"Royse City","TX","Texas",48397,"Rockwall",32.9762,-96.3175
"Henderson","TX","Texas",48401,"Rusk",32.1576,-94.796
"Seabrook","TX","Texas",48201,"Harris",29.5751,-95.0235
"Lumberton","TX","Texas",48199,"Hardin",30.2562,-94.207
"Kilgore","TX","Texas",48183,"Gregg",32.398,-94.8602
"Andrews","TX","Texas",48003,"Andrews",32.3207,-102.552
"Azle","TX","Texas",48439,"Tarrant",32.8955,-97.5379
"Levelland","TX","Texas",48219,"Hockley",33.5806,-102.3635
"Santa Fe","TX","Texas",48167,"Galveston",29.3889,-95.1003
"Athens","TX","Texas",48213,"Henderson",32.2041,-95.8321
"Trophy Club","TX","Texas",48121,"Denton",33.004,-97.1899
"Borger","TX","Texas",48233,"Hutchinson",35.6598,-101.4012
"Pecos","TX","Texas",48389,"Reeves",31.3971,-103.5201
"Robinson","TX","Texas",48309,"McLennan",31.4501,-97.1201
"Tomball","TX","Texas",48201,"Harris",30.0951,-95.6194
"Webster","TX","Texas",48201,"Harris",29.5317,-95.1188
"El Campo","TX","Texas",48481,"Wharton",29.2,-96.2723
"La Homa","TX","Texas",48215,"Hidalgo",26.2796,-98.3575
"Richmond","TX","Texas",48157,"Fort Bend",29.5824,-95.7563
"Port Lavaca","TX","Texas",48057,"Calhoun",28.6181,-96.6278
"Lantana","TX","Texas",48121,"Denton",33.0926,-97.1214
"Leon Valley","TX","Texas",48029,"Bexar",29.4954,-98.6143
"Roma","TX","Texas",48427,"Starr",26.4166,-99.0061
"Snyder","TX","Texas",48415,"Scurry",32.7133,-100.9116
"Four Corners","TX","Texas",48157,"Fort Bend",29.6705,-95.6596
"Fredericksburg","TX","Texas",48171,"Gillespie",30.266,-98.8751
"Freeport","TX","Texas",48039,"Brazoria",28.9453,-95.3601
"Burkburnett","TX","Texas",48485,"Wichita",34.0746,-98.5672
"Galena Park","TX","Texas",48201,"Harris",29.7452,-95.2333
"Clute","TX","Texas",48039,"Brazoria",29.0256,-95.3975
"Sweetwater","TX","Texas",48353,"Nolan",32.4692,-100.4092
"Selma","TX","Texas",48029,"Bexar",29.5866,-98.3132
"Raymondville","TX","Texas",48489,"Willacy",26.4759,-97.7769
"Bacliff","TX","Texas",48167,"Galveston",29.5085,-94.9888
"Pleasanton","TX","Texas",48013,"Atascosa",28.9642,-98.4957
"Bellmead","TX","Texas",48309,"McLennan",31.6026,-97.0897
"Granbury","TX","Texas",48221,"Hood",32.4475,-97.7702
"Robstown","TX","Texas",48355,"Nueces",27.794,-97.6692
"Bonham","TX","Texas",48147,"Fannin",33.588,-96.1901
"Rockport","TX","Texas",48007,"Aransas",28.029,-97.0722
"Vernon","TX","Texas",48487,"Wilbarger",34.1479,-99.3
"Manvel","TX","Texas",48039,"Brazoria",29.4798,-95.3635
"Fairview","TX","Texas",48085,"Collin",33.1399,-96.6117
"San Elizario","TX","Texas",48141,"El Paso",31.5793,-106.2632
"Fair Oaks Ranch","TX","Texas",48029,"Bexar",29.7467,-98.6376
"Vidor","TX","Texas",48361,"Orange",30.1291,-93.9967
"Hornsby Bend","TX","Texas",48453,"Travis",30.2388,-97.5899
"Eidson Road","TX","Texas",48323,"Maverick",28.6677,-100.4788
"Jacinto City","TX","Texas",48201,"Harris",29.7663,-95.241
"Ingleside","TX","Texas",48409,"San Patricio",27.8703,-97.2075
"Bastrop","TX","Texas",48021,"Bastrop",30.1113,-97.3176
"Elgin","TX","Texas",48021,"Bastrop",30.3526,-97.3883
"Bridge City","TX","Texas",48361,"Orange",30.0298,-93.8406
"Heath","TX","Texas",48397,"Rockwall",32.8439,-96.4674
"Woodway","TX","Texas",48309,"McLennan",31.4988,-97.2314
"Roanoke","TX","Texas",48121,"Denton",33.0144,-97.2276
"Scenic Oaks","TX","Texas",48029,"Bexar",29.7038,-98.6712
"Aransas Pass","TX","Texas",48355,"Nueces",27.8876,-97.1136
"Brownfield","TX","Texas",48445,"Terry",33.1757,-102.273
"Murillo","TX","Texas",48215,"Hidalgo",26.2642,-98.1233
"Helotes","TX","Texas",48029,"Bexar",29.5687,-98.696
"Highland Park","TX","Texas",48113,"Dallas",32.8311,-96.8012
"Perryton","TX","Texas",48357,"Ochiltree",36.3928,-100.7976
"Lago Vista","TX","Texas",48453,"Travis",30.4519,-97.9908
"Sanger","TX","Texas",48121,"Denton",33.3715,-97.1678
"Graham","TX","Texas",48503,"Young",33.1017,-98.5779
"Lamesa","TX","Texas",48115,"Dawson",32.7333,-101.9541
"Commerce","TX","Texas",48231,"Hunt",33.2421,-95.8992
"Wharton","TX","Texas",48481,"Wharton",29.3177,-96.1022
"Dayton","TX","Texas",48291,"Liberty",30.0315,-94.9158
"Bee Cave","TX","Texas",48453,"Travis",30.3084,-97.9629
"Richland Hills","TX","Texas",48439,"Tarrant",32.8095,-97.2273
"Fort Stockton","TX","Texas",48371,"Pecos",30.8926,-102.8842
"Dalhart","TX","Texas",48111,"Dallam",36.058,-102.5123
"Kennedale","TX","Texas",48439,"Tarrant",32.6434,-97.2172
"Hondo","TX","Texas",48325,"Medina",29.3531,-99.1616
"Whitehouse","TX","Texas",48423,"Smith",32.2222,-95.221
"Liberty","TX","Texas",48291,"Liberty",30.0378,-94.7879
"Travis Ranch","TX","Texas",48257,"Kaufman",32.8015,-96.4775
"Cuero","TX","Texas",48123,"DeWitt",29.1023,-97.2871
"Hillsboro","TX","Texas",48217,"Hill",32.0093,-97.115
"Iowa Colony","TX","Texas",48039,"Brazoria",29.4407,-95.4206
"Kirby","TX","Texas",48029,"Bexar",29.4614,-98.3855
"Los Fresnos","TX","Texas",48061,"Cameron",26.075,-97.4875
"Homestead Meadows South","TX","Texas",48141,"El Paso",31.811,-106.1643
"Jersey Village","TX","Texas",48201,"Harris",29.8903,-95.5721
"Paloma Creek South","TX","Texas",48121,"Denton",33.21,-96.9325
"Pearsall","TX","Texas",48163,"Frio",28.8915,-99.0975
"Belterra","TX","Texas",48209,"Hays",30.1885,-97.9845
"Joshua","TX","Texas",48251,"Johnson",32.458,-97.3849
"Highlands","TX","Texas",48201,"Harris",29.813,-95.0577
"Sunnyvale","TX","Texas",48113,"Dallas",32.7974,-96.5577
"River Oaks","TX","Texas",48439,"Tarrant",32.7767,-97.3985
"Monahans","TX","Texas",48475,"Ward",31.6289,-103.0403
"Navasota","TX","Texas",48185,"Grimes",30.3873,-96.0901
"Lake Dallas","TX","Texas",48121,"Denton",33.1279,-97.0234
"Cleveland","TX","Texas",48291,"Liberty",30.3381,-95.0908
"Lucas","TX","Texas",48085,"Collin",33.0942,-96.5797
"Lackland AFB","TX","Texas",48029,"Bexar",29.3866,-98.6179
"Alamo Heights","TX","Texas",48029,"Bexar",29.4828,-98.4682
"Providence Village","TX","Texas",48121,"Denton",33.238,-96.9583
"Hitchcock","TX","Texas",48167,"Galveston",29.2949,-95.03
"Mont Belvieu","TX","Texas",48071,"Chambers",29.8518,-94.8775
"West Livingston","TX","Texas",48373,"Polk",30.6957,-95.0097
"Lampasas","TX","Texas",48281,"Lampasas",31.064,-98.1824
"Olivarez","TX","Texas",48215,"Hidalgo",26.2285,-97.9931
"Floresville","TX","Texas",48493,"Wilson",29.1451,-98.1651
"Gonzales","TX","Texas",48177,"Gonzales",29.5126,-97.4472
"Heartland","TX","Texas",48257,"Kaufman",32.6748,-96.4515
"Jasper","TX","Texas",48241,"Jasper",30.9221,-93.9947
"Mila Doce","TX","Texas",48215,"Hidalgo",26.223,-97.9601
"Lacy-Lakeview","TX","Texas",48309,"McLennan",31.6292,-97.1052
"Mexia","TX","Texas",48293,"Limestone",31.6809,-96.4833
"Kingsland","TX","Texas",48299,"Llano",30.6651,-98.4545
"Seminole","TX","Texas",48165,"Gaines",32.7207,-102.6501
"Camp Swift","TX","Texas",48021,"Bastrop",30.1885,-97.2933
"La Feria","TX","Texas",48061,"Cameron",26.1544,-97.8255
"Marble Falls","TX","Texas",48053,"Burnet",30.5649,-98.2768
"Silsbee","TX","Texas",48199,"Hardin",30.3456,-94.1764
"Kaufman","TX","Texas",48257,"Kaufman",32.5766,-96.3158
"Sealy","TX","Texas",48015,"Austin",29.7662,-96.163
"Sonterra","TX","Texas",48491,"Williamson",30.8079,-97.5952
"Pecan Plantation","TX","Texas",48221,"Hood",32.3628,-97.6553
"Savannah","TX","Texas",48121,"Denton",33.2257,-96.9081
"Decatur","TX","Texas",48497,"Wise",33.2263,-97.5875
"Homestead Meadows North","TX","Texas",48141,"El Paso",31.8483,-106.1707
"Carthage","TX","Texas",48365,"Panola",32.1526,-94.3368
"Crystal City","TX","Texas",48507,"Zavala",28.6908,-99.8258
"Iowa Park","TX","Texas",48485,"Wichita",33.9622,-98.6819
"Prairie View","TX","Texas",48473,"Waller",30.0847,-95.9892
"Crockett","TX","Texas",48225,"Houston",31.3177,-95.4564
"Willis","TX","Texas",48339,"Montgomery",30.4314,-95.4831
"Burnet","TX","Texas",48053,"Burnet",30.7496,-98.2383
"Canutillo","TX","Texas",48141,"El Paso",31.9185,-106.6006
"Keene","TX","Texas",48251,"Johnson",32.3955,-97.3226
"Doolittle","TX","Texas",48215,"Hidalgo",26.3597,-98.1167
"White Oak","TX","Texas",48183,"Gregg",32.5312,-94.8564
"Penitas","TX","Texas",48215,"Hidalgo",26.2577,-98.4407
"Gladewater","TX","Texas",48183,"Gregg",32.5426,-94.9465
"Gun Barrel City","TX","Texas",48213,"Henderson",32.3277,-96.1286
"Everman","TX","Texas",48439,"Tarrant",32.6296,-97.2827
"Kermit","TX","Texas",48495,"Winkler",31.854,-103.0924
"Lindale","TX","Texas",48423,"Smith",32.4933,-95.4069
"Littlefield","TX","Texas",48279,"Lamb",33.9192,-102.3348
"Wake Village","TX","Texas",48037,"Bowie",33.4238,-94.127
"Edna","TX","Texas",48239,"Jackson",28.9757,-96.6483
"Slaton","TX","Texas",48303,"Lubbock",33.4421,-101.6476
"Alpine","TX","Texas",48043,"Brewster",30.364,-103.665
"Windcrest","TX","Texas",48029,"Bexar",29.515,-98.3818
"Nolanville","TX","Texas",48027,"Bell",31.0754,-97.609
"Yoakum","TX","Texas",48285,"Lavaca",29.2934,-97.1468
"Elsa","TX","Texas",48215,"Hidalgo",26.2978,-97.9936
"Muleshoe","TX","Texas",48017,"Bailey",34.2292,-102.7284
"Bridgeport","TX","Texas",48497,"Wise",33.21,-97.7708
"Childress","TX","Texas",48075,"Childress",34.4293,-100.2516
"Hempstead","TX","Texas",48473,"Waller",30.1006,-96.0777
"Briar","TX","Texas",48497,"Wise",32.9882,-97.5526
"Hutchins","TX","Texas",48113,"Dallas",32.6421,-96.7093
"Livingston","TX","Texas",48373,"Polk",30.71,-94.9381
"Bulverde","TX","Texas",48091,"Comal",29.7744,-98.4364
"Sinton","TX","Texas",48409,"San Patricio",28.0392,-97.5153
"Marlin","TX","Texas",48145,"Falls",31.3085,-96.8934
"Rusk","TX","Texas",48073,"Cherokee",31.7978,-95.1489
"Lakehills","TX","Texas",48019,"Bandera",29.6237,-98.9448
"Cameron Park","TX","Texas",48061,"Cameron",25.9706,-97.4775
"Fabens","TX","Texas",48141,"El Paso",31.5136,-106.1521
"Wolfforth","TX","Texas",48303,"Lubbock",33.5147,-102.0067
"Salida del Sol Estates","TX","Texas",48215,"Hidalgo",26.3257,-98.4469
"Krum","TX","Texas",48121,"Denton",33.2655,-97.2252
"Atlanta","TX","Texas",48067,"Cass",33.1136,-94.1672
"Luling","TX","Texas",48055,"Caldwell",29.6814,-97.6468
"Doffing","TX","Texas",48215,"Hidalgo",26.2788,-98.3856
"Rockdale","TX","Texas",48331,"Milam",30.6543,-97.0089
"Sansom Park","TX","Texas",48439,"Tarrant",32.8027,-97.4021
"Bowie","TX","Texas",48337,"Montague",33.5566,-97.844
"Parker","TX","Texas",48085,"Collin",33.0571,-96.6244
"Cameron","TX","Texas",48331,"Milam",30.8608,-96.9763
"McGregor","TX","Texas",48309,"McLennan",31.4186,-97.4283
"Northlake","TX","Texas",48121,"Denton",33.0809,-97.2548
"Breckenridge","TX","Texas",48429,"Stephens",32.7566,-98.9125
"Aubrey","TX","Texas",48121,"Denton",33.2874,-96.9622
"Port Isabel","TX","Texas",48061,"Cameron",26.054,-97.2505
"Center","TX","Texas",48419,"Shelby",31.793,-94.1795
"Nassau Bay","TX","Texas",48201,"Harris",29.5448,-95.0865
"Brookshire","TX","Texas",48473,"Waller",29.7824,-95.9514
"Sparks","TX","Texas",48141,"El Paso",31.6727,-106.2399
"Primera","TX","Texas",48061,"Cameron",26.2237,-97.7529
"San Leon","TX","Texas",48167,"Galveston",29.4902,-94.9405
"Brady","TX","Texas",48307,"McCulloch",31.1322,-99.37
"Granite Shoals","TX","Texas",48053,"Burnet",30.5894,-98.3671
"Wilmer","TX","Texas",48113,"Dallas",32.5983,-96.6815
"Terrell Hills","TX","Texas",48029,"Bexar",29.4771,-98.4472
"Carrizo Springs","TX","Texas",48127,"Dimmit",28.5267,-99.8589
"Medina","TX","Texas",48505,"Zapata",26.9289,-99.2614
"Giddings","TX","Texas",48287,"Lee",30.1833,-96.9279
"Sandy Oaks","TX","Texas",48029,"Bexar",29.1821,-98.4081
"Progreso","TX","Texas",48215,"Hidalgo",26.0962,-97.9566
"Zapata","TX","Texas",48505,"Zapata",26.9026,-99.2612
"Hudson","TX","Texas",48005,"Angelina",31.3287,-94.8014
"Mineola","TX","Texas",48499,"Wood",32.6462,-95.4774
"Willow Park","TX","Texas",48367,"Parker",32.7548,-97.6498
"Gilmer","TX","Texas",48459,"Upshur",32.7318,-94.9461
"Meadows Place","TX","Texas",48157,"Fort Bend",29.6513,-95.5874
"Pinehurst","TX","Texas",48339,"Montgomery",30.1889,-95.7017
"Potosi","TX","Texas",48441,"Taylor",32.3404,-99.6789
"Lake Worth","TX","Texas",48439,"Tarrant",32.813,-97.4306
"Dripping Springs","TX","Texas",48209,"Hays",30.196,-98.0938
"Aledo","TX","Texas",48367,"Parker",32.6974,-97.6069
"Hickory Creek","TX","Texas",48121,"Denton",33.1109,-97.0308
"Alvarado","TX","Texas",48251,"Johnson",32.4068,-97.2149
"Richwood","TX","Texas",48039,"Brazoria",29.0723,-95.4046
"New Boston","TX","Texas",48037,"Bowie",33.4612,-94.4183
"Shady Hollow","TX","Texas",48453,"Travis",30.1645,-97.8631
"Morgan's Point Resort","TX","Texas",48027,"Bell",31.1519,-97.4587
"Post","TX","Texas",48169,"Garza",33.191,-101.3814
"Diboll","TX","Texas",48005,"Angelina",31.1873,-94.7833
"Oak Point","TX","Texas",48121,"Denton",33.1795,-96.9907
"Hearne","TX","Texas",48395,"Robertson",30.877,-96.5956
"Falfurrias","TX","Texas",48047,"Brooks",27.2243,-98.1452
"Rio Bravo","TX","Texas",48479,"Webb",27.3648,-99.482
"Tulia","TX","Texas",48437,"Swisher",34.5374,-101.7741
"Madisonville","TX","Texas",48313,"Madison",30.9538,-95.9091
"La Joya","TX","Texas",48215,"Hidalgo",26.2518,-98.4699
"Horseshoe Bay","TX","Texas",48299,"Llano",30.5403,-98.3804
"Denver City","TX","Texas",48501,"Yoakum",32.968,-102.8318
"Palacios","TX","Texas",48321,"Matagorda",28.7171,-96.2334
"Cross Mountain","TX","Texas",48029,"Bexar",29.6559,-98.658
"Justin","TX","Texas",48121,"Denton",33.0882,-97.3041
"Mathis","TX","Texas",48409,"San Patricio",28.0909,-97.817
"Lavon","TX","Texas",48085,"Collin",33.0252,-96.4381
"La Grange","TX","Texas",48149,"Fayette",29.9129,-96.8768
"Hunters Creek Village","TX","Texas",48201,"Harris",29.7715,-95.4987
"Pilot Point","TX","Texas",48121,"Denton",33.3949,-96.9497
"Van Alstyne","TX","Texas",48181,"Grayson",33.4216,-96.5838
"Pittsburg","TX","Texas",48063,"Camp",32.9996,-94.9668
"Devine","TX","Texas",48325,"Medina",29.1456,-98.9049
"Argyle","TX","Texas",48121,"Denton",33.1102,-97.1867
"Hallsville","TX","Texas",48203,"Harrison",32.5021,-94.57
"Hebbronville","TX","Texas",48247,"Jim Hogg",27.3251,-98.6857
"Colorado City","TX","Texas",48335,"Mitchell",32.3996,-100.8582
"Pecan Acres","TX","Texas",48439,"Tarrant",32.9704,-97.4725
"Spring Valley Village","TX","Texas",48201,"Harris",29.7898,-95.5041
"Dimmitt","TX","Texas",48069,"Castro",34.5324,-102.3111
"San Carlos","TX","Texas",48215,"Hidalgo",26.2957,-98.0631
"Comanche","TX","Texas",48093,"Comanche",31.9005,-98.6043
"Bellville","TX","Texas",48015,"Austin",29.9472,-96.2598
"Jacksboro","TX","Texas",48237,"Jack",33.2256,-98.1594
"Friona","TX","Texas",48369,"Parmer",34.6394,-102.723
"Canton","TX","Texas",48467,"Van Zandt",32.5546,-95.8641
"Venus","TX","Texas",48251,"Johnson",32.4317,-97.1018
"Ovilla","TX","Texas",48139,"Ellis",32.5352,-96.8895
"North Alamo","TX","Texas",48215,"Hidalgo",26.216,-98.1264
"Cedar Creek","TX","Texas",48021,"Bastrop",30.0811,-97.518
"Garden Ridge","TX","Texas",48091,"Comal",29.6379,-98.2927
"Jourdanton","TX","Texas",48013,"Atascosa",28.9141,-98.5409
"Whitesboro","TX","Texas",48181,"Grayson",33.6612,-96.9022
"Scissors","TX","Texas",48215,"Hidalgo",26.1333,-98.0475
"Grape Creek","TX","Texas",48451,"Tom Green",31.5817,-100.5474
"Liberty Hill","TX","Texas",48491,"Williamson",30.6638,-97.9063
"Caldwell","TX","Texas",48051,"Burleson",30.5307,-96.7007
"Castle Hills","TX","Texas",48029,"Bexar",29.5229,-98.5197
"Coleman","TX","Texas",48083,"Coleman",31.8317,-99.4223
"Sullivan City","TX","Texas",48215,"Hidalgo",26.2752,-98.5644
"Smithville","TX","Texas",48021,"Bastrop",30.0082,-97.152
"Elm Creek","TX","Texas",48323,"Maverick",28.7783,-100.491
"Troy","TX","Texas",48027,"Bell",31.2,-97.3019
"Cockrell Hill","TX","Texas",48113,"Dallas",32.7382,-96.8885
"Cisco","TX","Texas",48133,"Eastland",32.3848,-98.9805
"Anthony","TX","Texas",48141,"El Paso",31.9876,-106.5933
"Bunker Hill Village","TX","Texas",48201,"Harris",29.7647,-95.5317
"Clyde","TX","Texas",48059,"Callahan",32.4056,-99.5039
"Rosita","TX","Texas",48323,"Maverick",28.6244,-100.4287
"Crandall","TX","Texas",48257,"Kaufman",32.6233,-96.4525
"Weston Lakes","TX","Texas",48157,"Fort Bend",29.6627,-95.9352
"Val Verde Park","TX","Texas",48465,"Val Verde",29.3746,-100.8306
"Cotulla","TX","Texas",48283,"La Salle",28.4364,-99.2367
"Groesbeck","TX","Texas",48293,"Limestone",31.5259,-96.5284
"Westway","TX","Texas",48141,"El Paso",31.9603,-106.576
"Wills Point","TX","Texas",48467,"Van Zandt",32.7093,-96.0052
"Wyldwood","TX","Texas",48021,"Bastrop",30.1299,-97.48
"Nash","TX","Texas",48037,"Bowie",33.4423,-94.1345
"San Diego","TX","Texas",48131,"Duval",27.7609,-98.2389
"Taylor Lake Village","TX","Texas",48201,"Harris",29.5765,-95.0561
"Laureles","TX","Texas",48061,"Cameron",26.1168,-97.4875
"West Columbia","TX","Texas",48039,"Brazoria",29.1422,-95.6491
"Edgecliff Village","TX","Texas",48439,"Tarrant",32.6561,-97.3406
"Barrett","TX","Texas",48201,"Harris",29.8671,-95.0537
"Eastland","TX","Texas",48133,"Eastland",32.4024,-98.8176
"Sweeny","TX","Texas",48039,"Brazoria",29.0463,-95.6988
"Crane","TX","Texas",48103,"Crane",31.3918,-102.3503
"Kenedy","TX","Texas",48255,"Karnes",28.8176,-97.8518
"The Homesteads","TX","Texas",48251,"Johnson",32.4755,-97.1663
"Farmersville","TX","Texas",48085,"Collin",33.1608,-96.3603
"Chula Vista","TX","Texas",48323,"Maverick",28.6573,-100.422
"Columbus","TX","Texas",48089,"Colorado",29.7056,-96.5571
"Midway North","TX","Texas",48215,"Hidalgo",26.1872,-98.0189
"Ballinger","TX","Texas",48399,"Runnels",31.7394,-99.9559
"Laguna Vista","TX","Texas",48061,"Cameron",26.1097,-97.2968
"Shavano Park","TX","Texas",48029,"Bexar",29.5861,-98.5563
"Eagle Lake","TX","Texas",48089,"Colorado",29.5879,-96.3282
"West Orange","TX","Texas",48361,"Orange",30.0791,-93.7598
"Mabank","TX","Texas",48257,"Kaufman",32.3685,-96.1138
"Clifton","TX","Texas",48035,"Bosque",31.7822,-97.5824
"Howe","TX","Texas",48181,"Grayson",33.5067,-96.6155
"McLendon-Chisholm","TX","Texas",48397,"Rockwall",32.8481,-96.391
"Dublin","TX","Texas",48143,"Erath",32.0875,-98.3392
"Reno","TX","Texas",48277,"Lamar",33.6659,-95.4768
"Presidio","TX","Texas",48377,"Presidio",29.5603,-104.3653
"Santa Rita Ranch","TX","Texas",48491,"Williamson",30.6642,-97.8328
"Teague","TX","Texas",48161,"Freestone",31.6296,-96.2802
"Dilley","TX","Texas",48163,"Frio",28.6675,-99.1765
"Central Gardens","TX","Texas",48245,"Jefferson",29.9893,-94.0216
"West Lake Hills","TX","Texas",48453,"Travis",30.292,-97.8083
"Huntington","TX","Texas",48005,"Angelina",31.2803,-94.577
"Abernathy","TX","Texas",48189,"Hale",33.842,-101.8162
"Winnsboro","TX","Texas",48499,"Wood",32.9557,-95.2909
"Redwood","TX","Texas",48187,"Guadalupe",29.81,-97.9103
"Shenandoah","TX","Texas",48339,"Montgomery",30.184,-95.4557
"Paloma Creek","TX","Texas",48121,"Denton",33.2253,-96.9371
"Waller","TX","Texas",48473,"Waller",30.0665,-95.9278
"Lake Cherokee","TX","Texas",48401,"Rusk",32.3569,-94.6513
"La Blanca","TX","Texas",48215,"Hidalgo",26.3048,-98.0286
"Llano","TX","Texas",48299,"Llano",30.7509,-98.6763
"Bullard","TX","Texas",48423,"Smith",32.1451,-95.3196
"Karnes City","TX","Texas",48255,"Karnes",28.8858,-97.9002
"South Alamo","TX","Texas",48215,"Hidalgo",26.1517,-98.1079
"Chandler","TX","Texas",48213,"Henderson",32.3065,-95.4781
"Bishop","TX","Texas",48355,"Nueces",27.5852,-97.7975
"Barton Creek","TX","Texas",48453,"Travis",30.2818,-97.8681
"Hideaway","TX","Texas",48423,"Smith",32.489,-95.4578
"Piney Point Village","TX","Texas",48201,"Harris",29.7588,-95.5156
"La Paloma","TX","Texas",48061,"Cameron",26.0518,-97.6552
"Hollywood Park","TX","Texas",48029,"Bexar",29.5994,-98.4841
"San Saba","TX","Texas",48411,"San Saba",31.1975,-98.7194
"George West","TX","Texas",48297,"Live Oak",28.33,-98.1183
"Early","TX","Texas",48049,"Brown",31.7421,-98.9366
"Grand Saline","TX","Texas",48467,"Van Zandt",32.6776,-95.7114
"Cactus","TX","Texas",48341,"Moore",36.0444,-102.008
"Henrietta","TX","Texas",48077,"Clay",33.8146,-98.1924
"El Lago","TX","Texas",48201,"Harris",29.5731,-95.044
"Needville","TX","Texas",48157,"Fort Bend",29.3957,-95.8386
"Beach City","TX","Texas",48071,"Chambers",29.7269,-94.8549
"Port Aransas","TX","Texas",48355,"Nueces",27.8102,-97.0875
"Springtown","TX","Texas",48367,"Parker",32.9693,-97.6804
"Oak Ridge North","TX","Texas",48339,"Montgomery",30.157,-95.4421
"Hudson Bend","TX","Texas",48453,"Travis",30.414,-97.928
"Overton","TX","Texas",48401,"Rusk",32.2759,-94.9726
"Olney","TX","Texas",48503,"Young",33.3644,-98.7585
"Double Oak","TX","Texas",48121,"Denton",33.0633,-97.1117
"Haskell","TX","Texas",48207,"Haskell",33.1597,-99.732
"Mount Vernon","TX","Texas",48159,"Franklin",33.176,-95.2253
"Big Lake","TX","Texas",48383,"Reagan",31.1941,-101.4534
"Nocona","TX","Texas",48337,"Montague",33.7835,-97.7302
"Combes","TX","Texas",48061,"Cameron",26.2448,-97.7257
"Annetta","TX","Texas",48367,"Parker",32.6938,-97.6581
"DeCordova","TX","Texas",48221,"Hood",32.428,-97.6911
"Onalaska","TX","Texas",48373,"Polk",30.8209,-95.1111
"Sonora","TX","Texas",48435,"Sutton",30.5707,-100.6423
"Seagraves","TX","Texas",48165,"Gaines",32.942,-102.5657
"Citrus City","TX","Texas",48215,"Hidalgo",26.3281,-98.3923
"Stamford","TX","Texas",48207,"Haskell",33.0156,-99.6716
"Seymour","TX","Texas",48023,"Baylor",33.5958,-99.258
"Castroville","TX","Texas",48325,"Medina",29.3513,-98.8711
"Spearman","TX","Texas",48195,"Hansford",36.1982,-101.1943
"Garfield","TX","Texas",48453,"Travis",30.1961,-97.5514
"Brazoria","TX","Texas",48039,"Brazoria",29.0454,-95.567
"Shallowater","TX","Texas",48303,"Lubbock",33.6901,-101.9893
"Hamilton","TX","Texas",48193,"Hamilton",31.6997,-98.1208
"Santa Rosa","TX","Texas",48061,"Cameron",26.2561,-97.8252
"Woodville","TX","Texas",48457,"Tyler",30.774,-94.4234
"Fairfield","TX","Texas",48161,"Freestone",31.7183,-96.1697
"Poteet","TX","Texas",48013,"Atascosa",29.0373,-98.5728
"Clarksville","TX","Texas",48387,"Red River",33.611,-95.0563
"Taft","TX","Texas",48409,"San Patricio",27.98,-97.3928
"Wimberley","TX","Texas",48209,"Hays",29.9848,-98.0906
"Bolivar Peninsula","TX","Texas",48167,"Galveston",29.486,-94.5666
"Ranger","TX","Texas",48133,"Eastland",32.4693,-98.6751
"Rancho Viejo","TX","Texas",48061,"Cameron",26.0358,-97.5568
"Edcouch","TX","Texas",48215,"Hidalgo",26.2937,-97.9631
"Tool","TX","Texas",48213,"Henderson",32.2803,-96.1725
"Oak Trail Shores","TX","Texas",48221,"Hood",32.4885,-97.8357
"Freer","TX","Texas",48131,"Duval",27.8823,-98.6178
"Shady Shores","TX","Texas",48121,"Denton",33.1632,-97.0401
"Refugio","TX","Texas",48391,"Refugio",28.3074,-97.275
"Balcones Heights","TX","Texas",48029,"Bexar",29.4899,-98.5503
"Ferris","TX","Texas",48139,"Ellis",32.5369,-96.6738
"Glen Rose","TX","Texas",48425,"Somervell",32.2461,-97.7442
"Combine","TX","Texas",48257,"Kaufman",32.5914,-96.5188
"Hackberry","TX","Texas",48121,"Denton",33.1501,-96.9184
"Hallettsville","TX","Texas",48285,"Lavaca",29.4431,-96.9435
"Floydada","TX","Texas",48153,"Floyd",33.9835,-101.3368
"Weimar","TX","Texas",48089,"Colorado",29.7,-96.7773
"Panhandle","TX","Texas",48065,"Carson",35.3461,-101.3804
"Vinton","TX","Texas",48141,"El Paso",31.9596,-106.5935
"Van","TX","Texas",48467,"Van Zandt",32.5242,-95.6373
"Stanton","TX","Texas",48317,"Martin",32.1317,-101.7927
"Ponder","TX","Texas",48121,"Denton",33.1781,-97.291
"La Villa","TX","Texas",48215,"Hidalgo",26.2964,-97.9269
"Trinity","TX","Texas",48455,"Trinity",30.9445,-95.3736
"Schulenburg","TX","Texas",48149,"Fayette",29.682,-96.9075
"Salado","TX","Texas",48027,"Bell",30.947,-97.529
"Agua Dulce","TX","Texas",48141,"El Paso",31.6549,-106.1369
"El Cenizo","TX","Texas",48479,"Webb",27.3318,-99.5028
"Palmhurst","TX","Texas",48215,"Hidalgo",26.2583,-98.2953
"The Hills","TX","Texas",48453,"Travis",30.3465,-97.9864
"Mauriceville","TX","Texas",48361,"Orange",30.2187,-93.8758
"Arcola","TX","Texas",48157,"Fort Bend",29.5032,-95.4693
"Premont","TX","Texas",48249,"Jim Wells",27.3585,-98.1244
"Junction","TX","Texas",48267,"Kimble",30.4906,-99.7726
"Westworth Village","TX","Texas",48439,"Tarrant",32.7599,-97.4239
"Bushland","TX","Texas",48375,"Potter",35.1992,-102.0633
"Perezville","TX","Texas",48215,"Hidalgo",26.2456,-98.4024
"Escobares","TX","Texas",48427,"Starr",26.4119,-98.96
"Nixon","TX","Texas",48177,"Gonzales",29.2698,-97.7658
"Winters","TX","Texas",48399,"Runnels",31.9564,-99.9292
"Midway South","TX","Texas",48215,"Hidalgo",26.1569,-98.0213
"West","TX","Texas",48309,"McLennan",31.8032,-97.0941
"Hooks","TX","Texas",48037,"Bowie",33.4707,-94.2842
"Pantego","TX","Texas",48439,"Tarrant",32.7149,-97.1538
"McQueeney","TX","Texas",48187,"Guadalupe",29.6,-98.0439
"Josephine","TX","Texas",48085,"Collin",33.0617,-96.3187
"Palmer","TX","Texas",48139,"Ellis",32.4258,-96.6724
"Lyford","TX","Texas",48489,"Willacy",26.4145,-97.7894
"Daingerfield","TX","Texas",48343,"Morris",33.0306,-94.725
"Panorama Village","TX","Texas",48339,"Montgomery",30.3806,-95.4944
"Palmview South","TX","Texas",48215,"Hidalgo",26.2083,-98.3779
"Jonestown","TX","Texas",48453,"Travis",30.4755,-97.9296
"Holly Lake Ranch","TX","Texas",48499,"Wood",32.7125,-95.2003
"Malakoff","TX","Texas",48213,"Henderson",32.1727,-96.0163
"Pottsboro","TX","Texas",48181,"Grayson",33.7708,-96.6714
"Beverly Hills","TX","Texas",48309,"McLennan",31.5224,-97.1564
"Indian Hills","TX","Texas",48215,"Hidalgo",26.2124,-97.9165
"Leonard","TX","Texas",48147,"Fannin",33.3829,-96.2467
"Circle D-KC Estates","TX","Texas",48021,"Bastrop",30.1611,-97.235
"Olmos Park","TX","Texas",48029,"Bexar",29.4749,-98.4866
"Talty","TX","Texas",48257,"Kaufman",32.6944,-96.4009
"Sunray","TX","Texas",48341,"Moore",36.0184,-101.8245
"Elmendorf","TX","Texas",48029,"Bexar",29.258,-98.3218
"Lake Kiowa","TX","Texas",48097,"Cooke",33.5703,-97.0129
"Kirbyville","TX","Texas",48241,"Jasper",30.6578,-93.9001
"Uvalde Estates","TX","Texas",48463,"Uvalde",29.1695,-99.8329
"Inez","TX","Texas",48469,"Victoria",28.8718,-96.7959
"Canadian","TX","Texas",48211,"Hemphill",35.9096,-100.3838
"Dalworthington Gardens","TX","Texas",48439,"Tarrant",32.6937,-97.1567
"Winnie","TX","Texas",48071,"Chambers",29.8167,-94.3807
"Italy","TX","Texas",48139,"Ellis",32.1857,-96.8867
"Tahoka","TX","Texas",48305,"Lynn",33.164,-101.7949
"Hedwig Village","TX","Texas",48201,"Harris",29.7799,-95.5193
"Ozona","TX","Texas",48105,"Crockett",30.7074,-101.206
"Cienegas Terrace","TX","Texas",48465,"Val Verde",29.3687,-100.9432
"Fritch","TX","Texas",48233,"Hutchinson",35.6431,-101.5964
"Sour Lake","TX","Texas",48199,"Hardin",30.1378,-94.4046
"Kerens","TX","Texas",48349,"Navarro",32.1308,-96.2252
"Magnolia","TX","Texas",48339,"Montgomery",30.2115,-95.742
"Haslet","TX","Texas",48439,"Tarrant",32.9609,-97.3387
"Anahuac","TX","Texas",48071,"Chambers",29.7649,-94.6787
"Fannett","TX","Texas",48245,"Jefferson",29.925,-94.2389
"Merkel","TX","Texas",48441,"Taylor",32.4698,-100.0111
"Woodcreek","TX","Texas",48209,"Hays",30.0266,-98.1115
"Blue Mound","TX","Texas",48439,"Tarrant",32.8543,-97.3383
"Bear Creek Ranch","TX","Texas",48113,"Dallas",32.5594,-96.7643
"Jefferson","TX","Texas",48315,"Marion",32.7634,-94.3512
"Little River-Academy","TX","Texas",48027,"Bell",30.9876,-97.3531
"Willow Grove","TX","Texas",48309,"McLennan",31.5591,-97.296
"Gregory","TX","Texas",48409,"San Patricio",27.9231,-97.2908
"Quitman","TX","Texas",48499,"Wood",32.7954,-95.4436
"Yorktown","TX","Texas",48123,"DeWitt",28.9828,-97.5051
"Preston","TX","Texas",48181,"Grayson",33.8671,-96.6596
"Memphis","TX","Texas",48191,"Hall",34.7268,-100.5416
"Shepherd","TX","Texas",48407,"San Jacinto",30.491,-95.0021
"Briarcliff","TX","Texas",48453,"Travis",30.4088,-98.0452
"Troup","TX","Texas",48423,"Smith",32.145,-95.1229
"Lytle","TX","Texas",48013,"Atascosa",29.2342,-98.795
"Shadybrook","TX","Texas",48073,"Cherokee",32.1108,-95.4212
"Somerset","TX","Texas",48029,"Bexar",29.2285,-98.6567
"Sheldon","TX","Texas",48201,"Harris",29.8596,-95.134
"Little Cypress","TX","Texas",48361,"Orange",30.1773,-93.7538
"Jones Creek","TX","Texas",48039,"Brazoria",28.9752,-95.4714
"Electra","TX","Texas",48485,"Wichita",34.0325,-98.92
"Liberty City","TX","Texas",48183,"Gregg",32.4502,-94.9439
"St. Hedwig","TX","Texas",48029,"Bexar",29.4197,-98.2047
"Mart","TX","Texas",48309,"McLennan",31.5421,-96.83
"Mason","TX","Texas",48319,"Mason",30.748,-99.2288
"South Padre Island","TX","Texas",48061,"Cameron",26.1218,-97.1703
"Monte Alto","TX","Texas",48215,"Hidalgo",26.3744,-97.9727
"Wild Peach Village","TX","Texas",48039,"Brazoria",29.081,-95.6372
"Rio Hondo","TX","Texas",48061,"Cameron",26.2346,-97.5818
"Honey Grove","TX","Texas",48147,"Fannin",33.5866,-95.909
"Llano Grande","TX","Texas",48215,"Hidalgo",26.1309,-97.9687
"Wellington","TX","Texas",48087,"Collingsworth",34.8538,-100.214
"Whitney","TX","Texas",48217,"Hill",31.952,-97.3192
"Blanco","TX","Texas",48031,"Blanco",30.0987,-98.4169
"Stowell","TX","Texas",48071,"Chambers",29.7814,-94.3794
"Quanah","TX","Texas",48197,"Hardeman",34.2954,-99.7428
"Idalou","TX","Texas",48303,"Lubbock",33.6624,-101.6838
"East Bernard","TX","Texas",48481,"Wharton",29.5241,-96.0622
"Van Horn","TX","Texas",48109,"Culberson",31.0407,-104.8341
"Ganado","TX","Texas",48239,"Jackson",29.0413,-96.511
"Hale Center","TX","Texas",48189,"Hale",34.0661,-101.8463
"Newton","TX","Texas",48351,"Newton",30.8503,-93.7536
"Eldorado","TX","Texas",48413,"Schleicher",30.8617,-100.5979
"Shamrock","TX","Texas",48483,"Wheeler",35.2154,-100.2462
"Roman Forest","TX","Texas",48339,"Montgomery",30.1811,-95.1551
"Ben Wheeler","TX","Texas",48467,"Van Zandt",32.4463,-95.7023
"Hudson Oaks","TX","Texas",48367,"Parker",32.7509,-97.7001
"Shiner","TX","Texas",48285,"Lavaca",29.4332,-97.1734
"Anson","TX","Texas",48253,"Jones",32.755,-99.8963
"Heidelberg","TX","Texas",48215,"Hidalgo",26.1831,-97.885
"Meadowlakes","TX","Texas",48053,"Burnet",30.5639,-98.2955
"Laughlin AFB","TX","Texas",48465,"Val Verde",29.3568,-100.7829
"Grandview","TX","Texas",48251,"Johnson",32.2685,-97.1775
"Odem","TX","Texas",48409,"San Patricio",27.9462,-97.5875
"Gunter","TX","Texas",48181,"Grayson",33.4647,-96.7646
"Copper Canyon","TX","Texas",48121,"Denton",33.0962,-97.0976
"Comfort","TX","Texas",48259,"Kendall",29.9704,-98.9046
"Juarez","TX","Texas",48061,"Cameron",26.2009,-97.7296
"West Tawakoni","TX","Texas",48231,"Hunt",32.8976,-96.0218
"Lorena","TX","Texas",48309,"McLennan",31.3818,-97.2127
"LaCoste","TX","Texas",48325,"Medina",29.31,-98.8116
"Ingram","TX","Texas",48265,"Kerr",30.0771,-99.2374
"Jarrell","TX","Texas",48491,"Williamson",30.8103,-97.6144
"Splendora","TX","Texas",48339,"Montgomery",30.2324,-95.1616
"Kountze","TX","Texas",48199,"Hardin",30.3725,-94.316
"De Leon","TX","Texas",48093,"Comanche",32.1114,-98.5352
"Bayou Vista","TX","Texas",48167,"Galveston",29.3257,-94.939
"Corrigan","TX","Texas",48373,"Polk",30.9988,-94.8274
"Las Lomas","TX","Texas",48427,"Starr",26.3638,-98.7748
"Cooper","TX","Texas",48119,"Delta",33.3716,-95.6912
"Kemah","TX","Texas",48167,"Galveston",29.5309,-95.0196
"Hamlin","TX","Texas",48253,"Jones",32.8898,-100.1329
"Lowry Crossing","TX","Texas",48085,"Collin",33.1711,-96.5443
"Olton","TX","Texas",48279,"Lamb",34.1802,-102.137
"Edgewood","TX","Texas",48467,"Van Zandt",32.6943,-95.8833
"Bells","TX","Texas",48181,"Grayson",33.6167,-96.4126
"Bertram","TX","Texas",48053,"Burnet",30.7427,-98.0639
"Seth Ward","TX","Texas",48189,"Hale",34.2163,-101.6945
"Randolph AFB","TX","Texas",48029,"Bexar",29.5302,-98.2788
"Marfa","TX","Texas",48377,"Presidio",30.3107,-104.0255
"Pelican Bay","TX","Texas",48439,"Tarrant",32.9227,-97.5189
"Grapeland","TX","Texas",48225,"Houston",31.4948,-95.4765
"Crosby","TX","Texas",48201,"Harris",29.9146,-95.0591
"San Augustine","TX","Texas",48405,"San Augustine",31.5296,-94.1108
"Waskom","TX","Texas",48203,"Harrison",32.4766,-94.0646
"Lone Star","TX","Texas",48343,"Morris",32.9392,-94.709
"Old River-Winfree","TX","Texas",48071,"Chambers",29.8745,-94.8268
"Krugerville","TX","Texas",48121,"Denton",33.279,-96.988
"Linden","TX","Texas",48067,"Cass",33.011,-94.3626
"Eden","TX","Texas",48095,"Concho",31.2163,-99.844
"Oak Leaf","TX","Texas",48139,"Ellis",32.5138,-96.8563
"Bartonville","TX","Texas",48121,"Denton",33.079,-97.1507
"Rhome","TX","Texas",48497,"Wise",33.0646,-97.4779
"Hawkins","TX","Texas",48499,"Wood",32.5917,-95.2027
"Goliad","TX","Texas",48175,"Goliad",28.6708,-97.3917
"Center Point","TX","Texas",48265,"Kerr",29.9414,-99.0413
"Flatonia","TX","Texas",48149,"Fayette",29.6888,-97.1059
"Pleak","TX","Texas",48157,"Fort Bend",29.4842,-95.8119
"Clarendon","TX","Texas",48129,"Donley",34.9366,-100.8918
"Collinsville","TX","Texas",48181,"Grayson",33.5594,-96.907
"Hico","TX","Texas",48193,"Hamilton",31.9859,-98.0291
"Rosharon","TX","Texas",48039,"Brazoria",29.35,-95.453
"Buffalo","TX","Texas",48289,"Leon",31.46,-96.066
"McCamey","TX","Texas",48461,"Upton",31.1325,-102.22
"Siesta Shores","TX","Texas",48505,"Zapata",26.8548,-99.2605
"Meridian","TX","Texas",48035,"Bosque",31.9262,-97.6501
"Milam","TX","Texas",48403,"Sabine",31.4541,-93.7979
"Poth","TX","Texas",48493,"Wilson",29.0726,-98.0809
"Archer City","TX","Texas",48009,"Archer",33.5938,-98.6256
"Buna","TX","Texas",48241,"Jasper",30.4458,-93.9625
"Siesta Acres","TX","Texas",48323,"Maverick",28.7564,-100.491
"Manchaca","TX","Texas",48453,"Travis",30.1353,-97.8364
"Pine Island","TX","Texas",48473,"Waller",30.0554,-96.0253
"Bartlett","TX","Texas",48491,"Williamson",30.7952,-97.4324
"Lopezville","TX","Texas",48215,"Hidalgo",26.2453,-98.1537
"Caddo Mills","TX","Texas",48231,"Hunt",33.0504,-96.2279
"Godley","TX","Texas",48251,"Johnson",32.455,-97.5302
"Lakeside","TX","Texas",48439,"Tarrant",32.8222,-97.4867
"Baird","TX","Texas",48059,"Callahan",32.396,-99.3963
"Abram","TX","Texas",48215,"Hidalgo",26.2173,-98.4179
"Serenada","TX","Texas",48491,"Williamson",30.6948,-97.6959
"Goldthwaite","TX","Texas",48333,"Mills",31.4513,-98.5736
"Albany","TX","Texas",48417,"Shackelford",32.7272,-99.2957
"Bangs","TX","Texas",48049,"Brown",31.7162,-99.1303
"Bruceville-Eddy","TX","Texas",48309,"McLennan",31.3105,-97.2477
"Palm Valley","TX","Texas",48061,"Cameron",26.2015,-97.7546
"Cumings","TX","Texas",48157,"Fort Bend",29.5836,-95.7966
"Naples","TX","Texas",48343,"Morris",33.2029,-94.6777
"Gruver","TX","Texas",48195,"Hansford",36.2562,-101.4122
"Quinlan","TX","Texas",48231,"Hunt",32.909,-96.1312
"Cottonwood Shores","TX","Texas",48053,"Burnet",30.555,-98.3276
"Johnson City","TX","Texas",48031,"Blanco",30.2743,-98.4065
"Woodbranch","TX","Texas",48339,"Montgomery",30.1813,-95.1836
"Plum Grove","TX","Texas",48291,"Liberty",30.2007,-95.0956
"Whitewright","TX","Texas",48181,"Grayson",33.5108,-96.3956
"De Kalb","TX","Texas",48037,"Bowie",33.5076,-94.6166
"Montgomery","TX","Texas",48339,"Montgomery",30.3921,-95.6958
"Ralls","TX","Texas",48107,"Crosby",33.6788,-101.3846
"Runaway Bay","TX","Texas",48497,"Wise",33.1774,-97.8709
"Forest Heights","TX","Texas",48361,"Orange",30.2339,-93.761
"Three Rivers","TX","Texas",48297,"Live Oak",28.4668,-98.1784
"Crosbyton","TX","Texas",48107,"Crosby",33.6413,-101.2377
"Lake Brownwood","TX","Texas",48049,"Brown",31.8176,-99.1045
"Uhland","TX","Texas",48209,"Hays",29.9627,-97.7952
"Lockney","TX","Texas",48153,"Floyd",34.123,-101.4424
"Morton","TX","Texas",48079,"Cochran",33.7248,-102.7593
"Wallis","TX","Texas",48015,"Austin",29.6317,-96.0638
"Brownsboro","TX","Texas",48213,"Henderson",32.2984,-95.6131
"Farwell","TX","Texas",48369,"Parmer",34.3855,-103.0373
"Rancho Alegre","TX","Texas",48249,"Jim Wells",27.7392,-98.1027
"Boyd","TX","Texas",48497,"Wise",33.0843,-97.5632
"Holliday","TX","Texas",48009,"Archer",33.8141,-98.6899
"Red Lick","TX","Texas",48037,"Bowie",33.4766,-94.1686
"Ben Bolt","TX","Texas",48249,"Jim Wells",27.6659,-98.0967
"Lake Bryan","TX","Texas",48041,"Brazos",30.718,-96.4669
"Ivanhoe","TX","Texas",48457,"Tyler",30.6799,-94.4154
"Taft Southwest","TX","Texas",48409,"San Patricio",27.9711,-97.4055
"Emory","TX","Texas",48379,"Rains",32.8766,-95.7677
"Point Venture","TX","Texas",48453,"Travis",30.3817,-98.001
"Southmayd","TX","Texas",48181,"Grayson",33.6231,-96.7287
"Deerwood","TX","Texas",48339,"Montgomery",30.3153,-95.3013
"Laguna Heights","TX","Texas",48061,"Cameron",26.081,-97.2592
"Laguna Park","TX","Texas",48035,"Bosque",31.8643,-97.3861
"Palmer","TX","Texas",48061,"Cameron",26.0703,-97.6342
"Itasca","TX","Texas",48217,"Hill",32.1586,-97.1478
"Brackettville","TX","Texas",48271,"Kinney",29.3181,-100.4109
"Rosanky","TX","Texas",48021,"Bastrop",29.9537,-97.3065
"Arp","TX","Texas",48423,"Smith",32.2279,-95.0534
"Southside Place","TX","Texas",48201,"Harris",29.7089,-95.4366
"Eustace","TX","Texas",48213,"Henderson",32.3076,-96.0138
"Thorndale","TX","Texas",48331,"Milam",30.6141,-97.2068
"Carter","TX","Texas",48367,"Parker",32.9139,-97.7343
"Danbury","TX","Texas",48039,"Brazoria",29.2274,-95.3461
"Stinnett","TX","Texas",48233,"Hutchinson",35.8231,-101.4436
"Shoreacres","TX","Texas",48201,"Harris",29.6203,-95.0191
"New Fairview","TX","Texas",48497,"Wise",33.1124,-97.4456
"Westwood Shores","TX","Texas",48455,"Trinity",30.9376,-95.3254
"Quail Creek","TX","Texas",48469,"Victoria",28.7773,-97.0848
"Rockwell Place","TX","Texas",48381,"Randall",35.0422,-101.9084
"Rosebud","TX","Texas",48145,"Falls",31.0756,-96.9749
"Brookside Village","TX","Texas",48039,"Brazoria",29.5908,-95.3179
"Wortham","TX","Texas",48161,"Freestone",31.7897,-96.461
"Woodsboro","TX","Texas",48391,"Refugio",28.2379,-97.3254
"Booker","TX","Texas",48295,"Lipscomb",36.4561,-100.5402
"West Sharyland","TX","Texas",48215,"Hidalgo",26.2719,-98.3404
"Hubbard","TX","Texas",48217,"Hill",31.847,-96.8003
"Charlotte","TX","Texas",48013,"Atascosa",28.8593,-98.7006
"China Grove","TX","Texas",48029,"Bexar",29.393,-98.3443
"Kempner","TX","Texas",48281,"Lampasas",31.0755,-97.9725
"Wheeler","TX","Texas",48483,"Wheeler",35.4411,-100.2752
"Sundown","TX","Texas",48219,"Hockley",33.4576,-102.4908
"Hamshire","TX","Texas",48245,"Jefferson",29.857,-94.3185
"Riesel","TX","Texas",48309,"McLennan",31.4763,-96.9303
"Lake Dunlap","TX","Texas",48187,"Guadalupe",29.6683,-98.0773
"Hemphill","TX","Texas",48403,"Sabine",31.3431,-93.8511
"Elkhart","TX","Texas",48001,"Anderson",31.6276,-95.5789
"Roscoe","TX","Texas",48353,"Nolan",32.4419,-100.5322
"Bovina","TX","Texas",48369,"Parmer",34.5156,-102.8848
"Pinewood Estates","TX","Texas",48199,"Hardin",30.1692,-94.3207
"Rogers","TX","Texas",48027,"Bell",30.93,-97.229
"Tolar","TX","Texas",48221,"Hood",32.3895,-97.919
"Blossom","TX","Texas",48277,"Lamar",33.6633,-95.3837
"La Grulla","TX","Texas",48427,"Starr",26.2721,-98.6483
"Frankston","TX","Texas",48001,"Anderson",32.0561,-95.5043
"Fulton","TX","Texas",48007,"Aransas",28.0706,-97.0429
"Rollingwood","TX","Texas",48453,"Travis",30.2736,-97.7867
"Fifth Street","TX","Texas",48157,"Fort Bend",29.5982,-95.552
"Mikes","TX","Texas",48427,"Starr",26.3147,-98.6336
"Aurora","TX","Texas",48497,"Wise",33.056,-97.5096
"Bigfoot","TX","Texas",48163,"Frio",29.0619,-98.8521
"Lakeport","TX","Texas",48183,"Gregg",32.405,-94.7102
"Gorman","TX","Texas",48133,"Eastland",32.2136,-98.6721
"Iraan","TX","Texas",48371,"Pecos",30.9129,-101.9001
"Holland","TX","Texas",48027,"Bell",30.8835,-97.4025
"Moody","TX","Texas",48309,"McLennan",31.3086,-97.3596
"McDade","TX","Texas",48021,"Bastrop",30.2817,-97.2453
"Westlake","TX","Texas",48439,"Tarrant",32.9809,-97.2041
"Tenaha","TX","Texas",48419,"Shelby",31.944,-94.2457
"Stratford","TX","Texas",48421,"Sherman",36.3376,-102.076
"Cross Roads","TX","Texas",48121,"Denton",33.2291,-96.9985
"Encantada-Ranchito-El Calaboz","TX","Texas",48061,"Cameron",26.0338,-97.6337
"Tornillo","TX","Texas",48141,"El Paso",31.4366,-106.1033
"Franklin","TX","Texas",48395,"Robertson",31.025,-96.4876
"Kemp","TX","Texas",48257,"Kaufman",32.4351,-96.224
"Stockdale","TX","Texas",48493,"Wilson",29.2361,-97.9636
"Gholson","TX","Texas",48309,"McLennan",31.7123,-97.236
"Buchanan Dam","TX","Texas",48299,"Llano",30.7807,-98.4392
"Hughes Springs","TX","Texas",48067,"Cass",32.9987,-94.6311
"China Spring","TX","Texas",48309,"McLennan",31.6492,-97.3048
"Seven Points","TX","Texas",48213,"Henderson",32.3291,-96.2142
"Fort Clark Springs","TX","Texas",48271,"Kinney",29.2937,-100.4244
"Menard","TX","Texas",48327,"Menard",30.9185,-99.7837
"Sebastian","TX","Texas",48489,"Willacy",26.3454,-97.7964
"Patton Village","TX","Texas",48339,"Montgomery",30.1954,-95.1643
"Lamar","TX","Texas",48007,"Aransas",28.1439,-96.9888
"Bloomington","TX","Texas",48469,"Victoria",28.6504,-96.9022
"Sargent","TX","Texas",48321,"Matagorda",28.7966,-95.6465
"Redland","TX","Texas",48005,"Angelina",31.4033,-94.7182
"Seadrift","TX","Texas",48057,"Calhoun",28.4142,-96.7162
"Big Sandy","TX","Texas",48459,"Upshur",32.586,-95.1127
"Claude","TX","Texas",48011,"Armstrong",35.1075,-101.3629
"Lexington","TX","Texas",48287,"Lee",30.4148,-97.0094
"Mustang Ridge","TX","Texas",48453,"Travis",30.0574,-97.6851
"Valley Mills","TX","Texas",48035,"Bosque",31.6582,-97.4715
"Emerald Bay","TX","Texas",48423,"Smith",32.1602,-95.438
"Encinal","TX","Texas",48283,"La Salle",28.041,-99.3546
"Chico","TX","Texas",48497,"Wise",33.296,-97.7986
"Cross Plains","TX","Texas",48059,"Callahan",32.1271,-99.1658
"Queen City","TX","Texas",48067,"Cass",33.1507,-94.1524
"Wolfe City","TX","Texas",48231,"Hunt",33.3686,-96.072
"Gardendale","TX","Texas",48135,"Ector",32.0105,-102.3587
"Skidmore","TX","Texas",48025,"Bee",28.2626,-97.6854
"Munday","TX","Texas",48275,"Knox",33.4471,-99.624
"Somerville","TX","Texas",48051,"Burleson",30.346,-96.5311
"Powderly","TX","Texas",48277,"Lamar",33.809,-95.505
"Tatum","TX","Texas",48401,"Rusk",32.3159,-94.5189
"Lindsay","TX","Texas",48097,"Cooke",33.6418,-97.2186
"Rio Vista","TX","Texas",48251,"Johnson",32.2351,-97.3745
"Benavides","TX","Texas",48131,"Duval",27.5969,-98.4137
"Granger","TX","Texas",48491,"Williamson",30.718,-97.4411
"New Deal","TX","Texas",48303,"Lubbock",33.7322,-101.8435
"Berryville","TX","Texas",48213,"Henderson",32.0877,-95.4664
"Sterling City","TX","Texas",48431,"Sterling",31.8392,-100.986
"Cresson","TX","Texas",48221,"Hood",32.5299,-97.6154
"New Waverly","TX","Texas",48471,"Walker",30.5374,-95.4822
"Tye","TX","Texas",48441,"Taylor",32.4522,-99.8665
"Calvert","TX","Texas",48395,"Robertson",30.9791,-96.6716
"Harper","TX","Texas",48171,"Gillespie",30.2903,-99.2459
"Muenster","TX","Texas",48097,"Cooke",33.6586,-97.3874
"Western Lake","TX","Texas",48367,"Parker",32.6215,-97.816
"New London","TX","Texas",48401,"Rusk",32.2687,-94.9296
"Plains","TX","Texas",48501,"Yoakum",33.1883,-102.8214
"Nevada","TX","Texas",48085,"Collin",33.0463,-96.3811
"Oyster Creek","TX","Texas",48039,"Brazoria",28.9978,-95.3282
"Beaver Creek","TX","Texas",48051,"Burleson",30.4491,-96.5618
"Csar Chvez","TX","Texas",48215,"Hidalgo",26.3118,-98.1117
"Rotan","TX","Texas",48151,"Fisher",32.8541,-100.4655
"Evadale","TX","Texas",48241,"Jasper",30.3369,-94.06
"Porter Heights","TX","Texas",48339,"Montgomery",30.1501,-95.3217
"Von Ormy","TX","Texas",48029,"Bexar",29.2803,-98.6556
"Miles","TX","Texas",48399,"Runnels",31.6006,-100.1853
"Alvord","TX","Texas",48497,"Wise",33.3569,-97.696
"Alto","TX","Texas",48073,"Cherokee",31.6509,-95.0708
"Clear Lake Shores","TX","Texas",48167,"Galveston",29.5454,-95.0325
"Orange Grove","TX","Texas",48249,"Jim Wells",27.9562,-97.9386
"Bevil Oaks","TX","Texas",48245,"Jefferson",30.1517,-94.2711
"Boling","TX","Texas",48481,"Wharton",29.2584,-95.9436
"Fabrica","TX","Texas",48323,"Maverick",28.7446,-100.4934
"Indian Lake","TX","Texas",48061,"Cameron",26.0877,-97.5027
"San Felipe","TX","Texas",48015,"Austin",29.7965,-96.1051
"Santa Anna","TX","Texas",48083,"Coleman",31.7369,-99.3254
"Southwest Sandhill","TX","Texas",48475,"Ward",31.557,-102.9066
"Daisetta","TX","Texas",48291,"Liberty",30.1135,-94.6426
"Timpson","TX","Texas",48419,"Shelby",31.9065,-94.3971
"Las Palmas II","TX","Texas",48061,"Cameron",26.2032,-97.7395
"Maud","TX","Texas",48037,"Bowie",33.3299,-94.3461
"Garrison","TX","Texas",48347,"Nacogdoches",31.8252,-94.4932
"Seis Lagos","TX","Texas",48085,"Collin",33.071,-96.5665
"Pineland","TX","Texas",48403,"Sabine",31.2467,-93.9744
"Vega","TX","Texas",48359,"Oldham",35.2453,-102.4294
"Rice","TX","Texas",48349,"Navarro",32.2389,-96.4978
"Paducah","TX","Texas",48101,"Cottle",34.0144,-100.3038
"Bronte","TX","Texas",48081,"Coke",31.8857,-100.2955
"Ransom Canyon","TX","Texas",48303,"Lubbock",33.5303,-101.6838
"Blue Ridge","TX","Texas",48085,"Collin",33.2978,-96.3978
"Point","TX","Texas",48379,"Rains",32.9302,-95.869
"Garrett","TX","Texas",48139,"Ellis",32.3681,-96.6543
"Sam Rayburn","TX","Texas",48241,"Jasper",31.0789,-94.0269
"Runge","TX","Texas",48255,"Karnes",28.8859,-97.7134
"Newark","TX","Texas",48497,"Wise",33.005,-97.4856
"Amherst","TX","Texas",48279,"Lamb",34.012,-102.4147
"Hargill","TX","Texas",48215,"Hidalgo",26.4423,-98.0146
"Florence","TX","Texas",48491,"Williamson",30.8408,-97.7921
"Hart","TX","Texas",48069,"Castro",34.3857,-102.115
"Robert Lee","TX","Texas",48081,"Coke",31.8955,-100.4857
"Batesville","TX","Texas",48507,"Zavala",28.9552,-99.6237
"Ore City","TX","Texas",48459,"Upshur",32.8008,-94.7182
"Marion","TX","Texas",48187,"Guadalupe",29.5726,-98.143
"Port O'Connor","TX","Texas",48057,"Calhoun",28.4463,-96.4205
"Rankin","TX","Texas",48461,"Upton",31.2253,-101.9395
"Ames","TX","Texas",48291,"Liberty",30.0451,-94.7373
"Martindale","TX","Texas",48055,"Caldwell",29.8444,-97.839
"Aspermont","TX","Texas",48433,"Stonewall",33.1405,-100.2253
"Sudan","TX","Texas",48279,"Lamb",34.0665,-102.5243
"McLean","TX","Texas",48179,"Gray",35.2324,-100.6001
"Carrizo Hill","TX","Texas",48127,"Dimmit",28.5032,-99.8294
"Anton","TX","Texas",48219,"Hockley",33.8113,-102.1622
"Natalia","TX","Texas",48325,"Medina",29.1876,-98.8524
"Muniz","TX","Texas",48215,"Hidalgo",26.2578,-98.0897
"Elmo","TX","Texas",48257,"Kaufman",32.7315,-96.1589
"Seco Mines","TX","Texas",48323,"Maverick",28.7467,-100.5027
"Las Quintas Fronterizas","TX","Texas",48323,"Maverick",28.6897,-100.4679
"Louise","TX","Texas",48481,"Wharton",29.1118,-96.4123
"Pleasant Hill","TX","Texas",48373,"Polk",31.0033,-94.7936
"Maypearl","TX","Texas",48139,"Ellis",32.3141,-97.0051
"Van Vleck","TX","Texas",48321,"Matagorda",29.0278,-95.88
"Omaha","TX","Texas",48343,"Morris",33.182,-94.7402
"Coldspring","TX","Texas",48407,"San Jacinto",30.5898,-95.1307
"Tioga","TX","Texas",48181,"Grayson",33.4728,-96.9186
"Bogata","TX","Texas",48387,"Red River",33.4699,-95.2136
"Ricardo","TX","Texas",48273,"Kleberg",27.4186,-97.8476
"Jamaica Beach","TX","Texas",48167,"Galveston",29.1904,-94.98
"China","TX","Texas",48245,"Jefferson",30.0522,-94.3331
"Dawson","TX","Texas",48349,"Navarro",31.8941,-96.7151
"Wink","TX","Texas",48495,"Winkler",31.7545,-103.1541
"Waelder","TX","Texas",48177,"Gonzales",29.6943,-97.2972
"North Pearsall","TX","Texas",48163,"Frio",28.9216,-99.095
"Camp Wood","TX","Texas",48385,"Real",29.6691,-100.0108
"Lorenzo","TX","Texas",48107,"Crosby",33.6703,-101.5361
"St. Paul","TX","Texas",48085,"Collin",33.0437,-96.5504
"Redwater","TX","Texas",48037,"Bowie",33.3585,-94.2551
"Sunrise Beach Village","TX","Texas",48299,"Llano",30.5862,-98.4187
"Fort Davis","TX","Texas",48243,"Jeff Davis",30.5789,-103.8946
"Mertzon","TX","Texas",48235,"Irion",31.262,-100.8208
"Westminster","TX","Texas",48085,"Collin",33.3649,-96.4598
"East Mountain","TX","Texas",48459,"Upshur",32.6008,-94.8525
"La Vernia","TX","Texas",48493,"Wilson",29.3542,-98.1219
"Hilshire Village","TX","Texas",48201,"Harris",29.7908,-95.4885
"Fort Hancock","TX","Texas",48229,"Hudspeth",31.2837,-105.8446
"Chilton","TX","Texas",48145,"Falls",31.2848,-97.0607
"East Tawakoni","TX","Texas",48379,"Rains",32.9011,-95.9397
"Geronimo","TX","Texas",48187,"Guadalupe",29.6728,-97.9686
"Markham","TX","Texas",48321,"Matagorda",28.9627,-96.0645
"Arroyo Colorado Estates","TX","Texas",48061,"Cameron",26.1864,-97.6114
"Tiki Island","TX","Texas",48167,"Galveston",29.298,-94.9159
"Crawford","TX","Texas",48309,"McLennan",31.5382,-97.4465
"Point Blank","TX","Texas",48407,"San Jacinto",30.7473,-95.2163
"Centerville","TX","Texas",48289,"Leon",31.2583,-95.9794
"La Pryor","TX","Texas",48507,"Zavala",28.9487,-99.8483
"Canyon Creek","TX","Texas",48221,"Hood",32.3927,-97.7405
"Celeste","TX","Texas",48231,"Hunt",33.2896,-96.1945
"Ector","TX","Texas",48147,"Fannin",33.5793,-96.2731
"Beasley","TX","Texas",48157,"Fort Bend",29.4952,-95.9154
"Sand Springs","TX","Texas",48227,"Howard",32.2795,-101.3496
"Coolidge","TX","Texas",48293,"Limestone",31.7514,-96.6523
"Knox City","TX","Texas",48275,"Knox",33.4176,-99.8158
"South Point","TX","Texas",48061,"Cameron",25.8729,-97.383
"Savoy","TX","Texas",48147,"Fannin",33.5999,-96.3662
"Earth","TX","Texas",48279,"Lamb",34.2338,-102.4091
"New Hope","TX","Texas",48085,"Collin",33.2116,-96.5635
"Lakeside City","TX","Texas",48009,"Archer",33.8292,-98.5403
"Campbell","TX","Texas",48231,"Hunt",33.1483,-95.9532
"Meadow","TX","Texas",48445,"Terry",33.3377,-102.2058
"Clint","TX","Texas",48141,"El Paso",31.5901,-106.2289
"Mi Ranchito Estate","TX","Texas",48427,"Starr",26.3878,-98.8733
"White Deer","TX","Texas",48065,"Carson",35.4332,-101.1751
"Rice Tracts","TX","Texas",48061,"Cameron",26.0573,-97.6261
"Holiday Lakes","TX","Texas",48039,"Brazoria",29.2083,-95.5146
"Frost","TX","Texas",48349,"Navarro",32.0788,-96.8084
"Log Cabin","TX","Texas",48213,"Henderson",32.223,-96.0223
"Tom Bean","TX","Texas",48181,"Grayson",33.52,-96.4844
"Rocksprings","TX","Texas",48137,"Edwards",30.0172,-100.2128
"Olmito","TX","Texas",48061,"Cameron",26.0233,-97.5379
"Clarksville City","TX","Texas",48183,"Gregg",32.5329,-94.8946
"Milford","TX","Texas",48139,"Ellis",32.1214,-96.9498
"Falcon Lake Estates","TX","Texas",48505,"Zapata",26.8719,-99.2584
"Coyote Acres","TX","Texas",48249,"Jim Wells",27.7132,-98.1346
"Moulton","TX","Texas",48285,"Lavaca",29.5723,-97.1465
"Trinidad","TX","Texas",48213,"Henderson",32.1562,-96.1054
"Callender Lake","TX","Texas",48467,"Van Zandt",32.3675,-95.6983
"Cut and Shoot","TX","Texas",48339,"Montgomery",30.3403,-95.354
"Thrall","TX","Texas",48491,"Williamson",30.5882,-97.2977
"Coahoma","TX","Texas",48227,"Howard",32.2956,-101.3089
"Groveton","TX","Texas",48455,"Trinity",31.0572,-95.1268
"Beauxart Gardens","TX","Texas",48245,"Jefferson",29.9585,-94.0354
"Petersburg","TX","Texas",48189,"Hale",33.871,-101.5974
"Roby","TX","Texas",48151,"Fisher",32.746,-100.3795
"Dennis","TX","Texas",48367,"Parker",32.6057,-97.9359
"Valley View","TX","Texas",48097,"Cooke",33.4859,-97.1601
"Lasara","TX","Texas",48489,"Willacy",26.4635,-97.9087
"Deport","TX","Texas",48277,"Lamar",33.5291,-95.3174
"Sanderson","TX","Texas",48443,"Terrell",30.1508,-102.4079
"Grangerland","TX","Texas",48339,"Montgomery",30.2539,-95.3301
"Hill Country Village","TX","Texas",48029,"Bexar",29.5831,-98.4893
"Wells","TX","Texas",48073,"Cherokee",31.4916,-94.9473
"Warren","TX","Texas",48457,"Tyler",30.6127,-94.4105
"Solis","TX","Texas",48061,"Cameron",26.1708,-97.844
"La Tina Ranch","TX","Texas",48061,"Cameron",26.2031,-97.4764
"Lott","TX","Texas",48145,"Falls",31.206,-97.0334
"McKinney Acres","TX","Texas",48003,"Andrews",32.2963,-102.5298
"Beckville","TX","Texas",48365,"Panola",32.2436,-94.4561
"Simonton","TX","Texas",48157,"Fort Bend",29.6824,-95.991
"Normangee","TX","Texas",48289,"Leon",31.03,-96.1161
"Ladonia","TX","Texas",48147,"Fannin",33.4283,-95.9482
"Los Indios","TX","Texas",48061,"Cameron",26.0493,-97.7351
"New Berlin","TX","Texas",48187,"Guadalupe",29.4892,-98.1094
"Cushing","TX","Texas",48347,"Nacogdoches",31.8126,-94.8412
"Reid Hope King","TX","Texas",48061,"Cameron",25.9227,-97.4141
"Avery","TX","Texas",48387,"Red River",33.5521,-94.7803
"St. Jo","TX","Texas",48337,"Montague",33.695,-97.5231
"Annetta South","TX","Texas",48367,"Parker",32.6743,-97.6482
"Pine Harbor","TX","Texas",48315,"Marion",32.7716,-94.4992
"Knippa","TX","Texas",48463,"Uvalde",29.3076,-99.6329
"Cumby","TX","Texas",48223,"Hopkins",33.1354,-95.8394
"Westover Hills","TX","Texas",48439,"Tarrant",32.7437,-97.4123
"O'Donnell","TX","Texas",48305,"Lynn",32.9652,-101.8309
"Bryson","TX","Texas",48237,"Jack",33.1636,-98.3894
"Volente","TX","Texas",48453,"Travis",30.4454,-97.908
"Matador","TX","Texas",48345,"Motley",34.015,-100.8211
"Golinda","TX","Texas",48145,"Falls",31.3715,-97.0765
"Bremond","TX","Texas",48395,"Robertson",31.1657,-96.676
"Pendleton","TX","Texas",48027,"Bell",31.1953,-97.3368
"South La Paloma","TX","Texas",48249,"Jim Wells",27.8947,-97.9685
"Blooming Grove","TX","Texas",48349,"Navarro",32.0924,-96.7173
"Ingleside on the Bay","TX","Texas",48409,"San Patricio",27.8303,-97.2211
"Walnut Springs","TX","Texas",48035,"Bosque",32.0562,-97.7507
"Sabinal","TX","Texas",48463,"Uvalde",29.3214,-99.4696
"Sherwood Shores","TX","Texas",48181,"Grayson",33.8478,-96.8147
"Jewett","TX","Texas",48289,"Leon",31.3627,-96.1455
"Briaroaks","TX","Texas",48251,"Johnson",32.4958,-97.3033
"Detroit","TX","Texas",48387,"Red River",33.6601,-95.2665
"Niederwald","TX","Texas",48209,"Hays",30.0038,-97.7532
"Thunderbird Bay","TX","Texas",48049,"Brown",31.9087,-99.0207
"New Chapel Hill","TX","Texas",48423,"Smith",32.3011,-95.1674
"El Refugio","TX","Texas",48427,"Starr",26.3406,-98.7589
"Fairchilds","TX","Texas",48157,"Fort Bend",29.4399,-95.7765
"Driscoll","TX","Texas",48355,"Nueces",27.673,-97.751
"Lake Colorado City","TX","Texas",48335,"Mitchell",32.3491,-100.9375
"North San Pedro","TX","Texas",48355,"Nueces",27.8027,-97.682
"Kress","TX","Texas",48437,"Swisher",34.3658,-101.7484
"Spur","TX","Texas",48125,"Dickens",33.4703,-100.8556
"Wildwood","TX","Texas",48199,"Hardin",30.5256,-94.4456
"Rising Star","TX","Texas",48133,"Eastland",32.0976,-98.9665
"Trenton","TX","Texas",48147,"Fannin",33.4272,-96.3409
"Joaquin","TX","Texas",48419,"Shelby",31.9659,-94.0504
"Falls City","TX","Texas",48255,"Karnes",28.9822,-98.0217
"Oak Grove","TX","Texas",48257,"Kaufman",32.5327,-96.3186
"Tuscola","TX","Texas",48441,"Taylor",32.2115,-99.7983
"Union Grove","TX","Texas",48459,"Upshur",32.5798,-94.9095
"Colmesneil","TX","Texas",48457,"Tyler",30.9097,-94.4221
"Grey Forest","TX","Texas",48029,"Bexar",29.6171,-98.6835
"Lolita","TX","Texas",48239,"Jackson",28.8326,-96.5388
"Hilltop Lakes","TX","Texas",48289,"Leon",31.0755,-96.1915
"Silverton","TX","Texas",48045,"Briscoe",34.4714,-101.304
"Graford","TX","Texas",48363,"Palo Pinto",32.9374,-98.2474
"Valle Vista","TX","Texas",48427,"Starr",26.316,-98.6547
"Asherton","TX","Texas",48127,"Dimmit",28.4461,-99.7604
"San Perlita","TX","Texas",48489,"Willacy",26.501,-97.6397
"Hardin","TX","Texas",48291,"Liberty",30.1493,-94.7377
"Lake Medina Shores","TX","Texas",48019,"Bandera",29.6383,-98.9869
"Lake City","TX","Texas",48409,"San Patricio",28.0821,-97.8828
"Zavalla","TX","Texas",48005,"Angelina",31.1584,-94.418
"Oakwood","TX","Texas",48289,"Leon",31.5848,-95.8498
"Blue Berry Hill","TX","Texas",48025,"Bee",28.3855,-97.7921
"Indian Springs","TX","Texas",48373,"Polk",30.6879,-94.7449
"Bardwell","TX","Texas",48139,"Ellis",32.2671,-96.6955
"Hillcrest","TX","Texas",48039,"Brazoria",29.3924,-95.2233
"Newcastle","TX","Texas",48503,"Young",33.1951,-98.7436
"Sierra Blanca","TX","Texas",48229,"Hudspeth",31.1835,-105.3395
"Riviera","TX","Texas",48273,"Kleberg",27.2993,-97.7997
"Kosse","TX","Texas",48293,"Limestone",31.307,-96.6292
"Lometa","TX","Texas",48281,"Lampasas",31.2168,-98.3924
"La Paloma-Lost Creek","TX","Texas",48355,"Nueces",27.7195,-97.7392
"La Puerta","TX","Texas",48427,"Starr",26.3468,-98.7505
"Oak Ridge","TX","Texas",48257,"Kaufman",32.6478,-96.2596
"Los Ebanos","TX","Texas",48427,"Starr",26.4114,-98.9185
"Kenefick","TX","Texas",48291,"Liberty",30.1069,-94.8502
"Wickett","TX","Texas",48475,"Ward",31.5673,-103.006
"Surfside Beach","TX","Texas",48039,"Brazoria",28.9559,-95.2836
"Buchanan Lake Village","TX","Texas",48299,"Llano",30.8565,-98.4378
"Lake Tanglewood","TX","Texas",48381,"Randall",35.057,-101.7817
"Santa Clara","TX","Texas",48187,"Guadalupe",29.5911,-98.1614
"Burke","TX","Texas",48005,"Angelina",31.2345,-94.7665
"Glidden","TX","Texas",48089,"Colorado",29.6976,-96.5907
"Happy","TX","Texas",48437,"Swisher",34.7416,-101.8572
"Bailey's Prairie","TX","Texas",48039,"Brazoria",29.1527,-95.4977
"Tivoli","TX","Texas",48391,"Refugio",28.4608,-96.8915
"Horseshoe Bend","TX","Texas",48367,"Parker",32.5752,-97.8782
"Pettus","TX","Texas",48025,"Bee",28.6156,-97.8121
"Riverside","TX","Texas",48471,"Walker",30.8472,-95.3984
"Como","TX","Texas",48223,"Hopkins",33.0601,-95.4757
"Retreat","TX","Texas",48349,"Navarro",32.0507,-96.4787
"Mountain City","TX","Texas",48209,"Hays",30.0392,-97.8915
"Pueblo Nuevo","TX","Texas",48479,"Webb",27.4939,-99.3099
"Throckmorton","TX","Texas",48447,"Throckmorton",33.182,-99.1797
"New Summerfield","TX","Texas",48073,"Cherokee",31.9807,-95.115
"Chula Vista","TX","Texas",48507,"Zavala",28.6563,-99.8077
"Leary","TX","Texas",48037,"Bowie",33.469,-94.219
"Nina","TX","Texas",48427,"Starr",26.2811,-98.581
"Pecan Hill","TX","Texas",48139,"Ellis",32.4907,-96.7813
"Kurten","TX","Texas",48041,"Brazos",30.7895,-96.2758
"Stagecoach","TX","Texas",48339,"Montgomery",30.1438,-95.7079
"Rule","TX","Texas",48207,"Haskell",33.1819,-99.8933
"Santa Maria","TX","Texas",48061,"Cameron",26.0767,-97.8465
"Strawn","TX","Texas",48363,"Palo Pinto",32.551,-98.4979
"Big Thicket Lake Estates","TX","Texas",48291,"Liberty",30.4874,-94.7679
"D'Hanis","TX","Texas",48325,"Medina",29.3305,-99.2753
"Lakewood Village","TX","Texas",48121,"Denton",33.1379,-96.9751
"Carlsbad","TX","Texas",48451,"Tom Green",31.6112,-100.6406
"Lovelady","TX","Texas",48225,"Houston",31.1279,-95.4456
"Linn","TX","Texas",48215,"Hidalgo",26.5662,-98.1298
"Flat","TX","Texas",48099,"Coryell",31.3093,-97.6242
"Road Runner","TX","Texas",48097,"Cooke",33.483,-97.0849
"Bayview","TX","Texas",48061,"Cameron",26.1327,-97.3974
"Payne Springs","TX","Texas",48213,"Henderson",32.2872,-96.0892
"Crowell","TX","Texas",48155,"Foard",33.9839,-99.7241
"Stockton Bend","TX","Texas",48221,"Hood",32.475,-97.7611
"Lone Oak","TX","Texas",48231,"Hunt",32.9961,-95.9406
"Loraine","TX","Texas",48335,"Mitchell",32.4087,-100.7125
"Pattison","TX","Texas",48473,"Waller",29.8184,-95.9765
"Chireno","TX","Texas",48347,"Nacogdoches",31.4989,-94.3459
"Annetta North","TX","Texas",48367,"Parker",32.7193,-97.6722
"Plum","TX","Texas",48149,"Fayette",29.9324,-96.9812
"San Ygnacio","TX","Texas",48505,"Zapata",27.048,-99.4321
"Garza-Salinas II","TX","Texas",48427,"Starr",26.3518,-98.7595
"Roxton","TX","Texas",48277,"Lamar",33.5453,-95.7248
"Nocona Hills","TX","Texas",48337,"Montague",33.8524,-97.6435
"Cross Timber","TX","Texas",48251,"Johnson",32.4832,-97.3259
"Talco","TX","Texas",48449,"Titus",33.3628,-95.1034
"Scurry","TX","Texas",48257,"Kaufman",32.5125,-96.3846
"Milano","TX","Texas",48331,"Milam",30.7083,-96.8593
"Post Oak Bend City","TX","Texas",48257,"Kaufman",32.633,-96.3186
"Sandy Hollow-Escondidas","TX","Texas",48355,"Nueces",27.9452,-97.8061
"Plantersville","TX","Texas",48185,"Grimes",30.3321,-95.8629
"Olivia Lopez de Gutierrez","TX","Texas",48427,"Starr",26.3276,-98.7167
"Brazos Country","TX","Texas",48015,"Austin",29.7541,-96.0416
"Buffalo Springs","TX","Texas",48303,"Lubbock",33.5327,-101.7077
"Oglesby","TX","Texas",48099,"Coryell",31.4187,-97.5113
"Orason","TX","Texas",48061,"Cameron",26.0742,-97.4458
"Buckholts","TX","Texas",48331,"Milam",30.874,-97.1289
"Sunset Valley","TX","Texas",48453,"Travis",30.2258,-97.8158
"Snook","TX","Texas",48051,"Burleson",30.4907,-96.467
"Fruitvale","TX","Texas",48467,"Van Zandt",32.6834,-95.8036
"East Alto Bonito","TX","Texas",48427,"Starr",26.3023,-98.6358
"Myrtle Springs","TX","Texas",48467,"Van Zandt",32.6151,-95.9329
"Lefors","TX","Texas",48179,"Gray",35.4396,-100.804
"Leming","TX","Texas",48013,"Atascosa",29.0683,-98.4722
"Smiley","TX","Texas",48177,"Gonzales",29.2713,-97.6376
"Sunrise Shores","TX","Texas",48213,"Henderson",32.1801,-95.5056
"Thornton","TX","Texas",48293,"Limestone",31.4111,-96.5738
"Winona","TX","Texas",48423,"Smith",32.4928,-95.173
"Scotland","TX","Texas",48009,"Archer",33.6499,-98.4677
"Liverpool","TX","Texas",48039,"Brazoria",29.3018,-95.2746
"Timbercreek Canyon","TX","Texas",48381,"Randall",35.0539,-101.8186
"Hawk Cove","TX","Texas",48231,"Hunt",32.884,-96.0833
"Chillicothe","TX","Texas",48197,"Hardeman",34.256,-99.5144
"Union Valley","TX","Texas",48231,"Hunt",32.9351,-96.2441
"Gordon","TX","Texas",48363,"Palo Pinto",32.5455,-98.3672
"Sunset","TX","Texas",48337,"Montague",33.448,-97.7663
"Ranchos Penitas West","TX","Texas",48479,"Webb",27.6745,-99.6035
"Deweyville","TX","Texas",48351,"Newton",30.3032,-93.759
"Rancho Banquete","TX","Texas",48355,"Nueces",27.8093,-97.8455
"Alba","TX","Texas",48499,"Wood",32.7906,-95.6343
"Winfield","TX","Texas",48449,"Titus",33.1656,-95.1104
"Stonewall","TX","Texas",48171,"Gillespie",30.2497,-98.6593
"Coupland","TX","Texas",48491,"Williamson",30.4568,-97.3979
"Evant","TX","Texas",48099,"Coryell",31.4761,-98.1501
"Blum","TX","Texas",48217,"Hill",32.1419,-97.3972
"Buffalo Gap","TX","Texas",48441,"Taylor",32.2834,-99.8341
"Gustine","TX","Texas",48093,"Comanche",31.8457,-98.4025
"Wadsworth","TX","Texas",48321,"Matagorda",28.8224,-95.9276
"Lyons","TX","Texas",48051,"Burleson",30.3985,-96.5499
"Bristol","TX","Texas",48139,"Ellis",32.455,-96.5672
"Star Harbor","TX","Texas",48213,"Henderson",32.1927,-96.0542
"Big Wells","TX","Texas",48127,"Dimmit",28.5699,-99.5702
"Hallsburg","TX","Texas",48309,"McLennan",31.5683,-96.9464
"Santa Cruz","TX","Texas",48427,"Starr",26.3537,-98.7676
"New Home","TX","Texas",48305,"Lynn",33.3269,-101.9117
"Point Comfort","TX","Texas",48057,"Calhoun",28.6715,-96.5591
"Groom","TX","Texas",48065,"Carson",35.205,-101.1071
"Morning Glory","TX","Texas",48141,"El Paso",31.5648,-106.2089
"Paradise","TX","Texas",48497,"Wise",33.1504,-97.6887
"West Alto Bonito","TX","Texas",48427,"Starr",26.3144,-98.6632
"Vanderbilt","TX","Texas",48239,"Jackson",28.8208,-96.6097
"Spring Gardens","TX","Texas",48355,"Nueces",27.7615,-97.7419
"Noonday","TX","Texas",48423,"Smith",32.2441,-95.3972
"San Leanna","TX","Texas",48453,"Travis",30.1442,-97.8195
"DISH","TX","Texas",48121,"Denton",33.133,-97.3012
"Hawley","TX","Texas",48253,"Jones",32.6037,-99.8111
"Smyer","TX","Texas",48219,"Hockley",33.5874,-102.1636
"Webberville","TX","Texas",48453,"Travis",30.226,-97.4995
"Bear Creek","TX","Texas",48209,"Hays",30.1824,-97.9401
"Hull","TX","Texas",48291,"Liberty",30.1464,-94.6422
"Hebron","TX","Texas",48121,"Denton",33.0337,-96.8759
"Lipan","TX","Texas",48221,"Hood",32.5187,-98.047
"Barry","TX","Texas",48349,"Navarro",32.0999,-96.6378
"Higgins","TX","Texas",48295,"Lipscomb",36.121,-100.0274
"Burton","TX","Texas",48477,"Washington",30.1813,-96.5999
"Macdona","TX","Texas",48029,"Bexar",29.3205,-98.6973
"Nordheim","TX","Texas",48123,"DeWitt",28.9239,-97.6141
"Alma","TX","Texas",48139,"Ellis",32.2813,-96.5497
"Leroy","TX","Texas",48309,"McLennan",31.7322,-97.0214
"Balmorhea","TX","Texas",48389,"Reeves",30.984,-103.7438
"Bluetown","TX","Texas",48061,"Cameron",26.0734,-97.8199
"Appleby","TX","Texas",48347,"Nacogdoches",31.717,-94.6078
"Ropesville","TX","Texas",48219,"Hockley",33.4133,-102.1552
"K-Bar Ranch","TX","Texas",48249,"Jim Wells",27.9928,-97.9267
"Alamo Beach","TX","Texas",48057,"Calhoun",28.5734,-96.5655
"Bandera","TX","Texas",48019,"Bandera",29.7255,-99.0741
"Nome","TX","Texas",48245,"Jefferson",30.0364,-94.4063
"Highland Haven","TX","Texas",48053,"Burnet",30.6074,-98.3951
"Jayton","TX","Texas",48263,"Kent",33.2502,-100.5748
"Villa del Sol","TX","Texas",48061,"Cameron",26.1915,-97.5782
"Angus","TX","Texas",48349,"Navarro",31.9976,-96.427
"Rock Island","TX","Texas",48089,"Colorado",29.5189,-96.5702
"Dean","TX","Texas",48077,"Clay",33.9299,-98.3676
"Leakey","TX","Texas",48385,"Real",29.7254,-99.7631
"Placedo","TX","Texas",48469,"Victoria",28.6922,-96.8259
"Morgan","TX","Texas",48035,"Bosque",32.0155,-97.6061
"Prado Verde","TX","Texas",48141,"El Paso",31.8898,-106.6135
"Rosser","TX","Texas",48257,"Kaufman",32.4648,-96.4431
"Relampago","TX","Texas",48215,"Hidalgo",26.0851,-97.9059
"Matagorda","TX","Texas",48321,"Matagorda",28.697,-95.9668
"Huxley","TX","Texas",48419,"Shelby",31.7644,-93.8849
"Sadler","TX","Texas",48181,"Grayson",33.682,-96.8487
"Bellevue","TX","Texas",48077,"Clay",33.6335,-98.0164
"Hermleigh","TX","Texas",48415,"Scurry",32.6366,-100.7523
"South Mountain","TX","Texas",48099,"Coryell",31.4398,-97.6793
"Marathon","TX","Texas",48043,"Brewster",30.2157,-103.2433
"Murchison","TX","Texas",48213,"Henderson",32.2751,-95.756
"Cedar Point","TX","Texas",48373,"Polk",30.7975,-95.0749
"Easton","TX","Texas",48183,"Gregg",32.382,-94.5912
"Banquete","TX","Texas",48355,"Nueces",27.8007,-97.7972
"Oak Valley","TX","Texas",48349,"Navarro",32.0331,-96.5116
"Miami","TX","Texas",48393,"Roberts",35.6923,-100.6417
"Mount Calm","TX","Texas",48217,"Hill",31.7564,-96.8817
"Cape Royale","TX","Texas",48407,"San Jacinto",30.6531,-95.1265
"Knollwood","TX","Texas",48181,"Grayson",33.6893,-96.6185
"Malone","TX","Texas",48217,"Hill",31.9171,-96.8948
"Dodd City","TX","Texas",48147,"Fannin",33.5757,-96.0755
"Bixby","TX","Texas",48061,"Cameron",26.14,-97.8562
"Lawn","TX","Texas",48441,"Taylor",32.1366,-99.7499
"Garwood","TX","Texas",48089,"Colorado",29.4432,-96.4056
"Los Barreras","TX","Texas",48427,"Starr",26.3911,-98.9184
"Forsan","TX","Texas",48227,"Howard",32.1104,-101.3668
"Cottonwood","TX","Texas",48257,"Kaufman",32.4613,-96.3965
"Texline","TX","Texas",48111,"Dallam",36.3765,-103.0189
"Ackerly","TX","Texas",48317,"Martin",32.5251,-101.7158
"Sheridan","TX","Texas",48089,"Colorado",29.5023,-96.6761
"Rose City","TX","Texas",48361,"Orange",30.1049,-94.0506
"Red Rock","TX","Texas",48021,"Bastrop",29.96,-97.4428
"Millsap","TX","Texas",48367,"Parker",32.7493,-98.0117
"Devers","TX","Texas",48291,"Liberty",30.0287,-94.586
"Cove","TX","Texas",48071,"Chambers",29.8109,-94.8206
"New Ulm","TX","Texas",48015,"Austin",29.8874,-96.4913
"Alto Bonito Heights","TX","Texas",48427,"Starr",26.3158,-98.6413
"Garner","TX","Texas",48367,"Parker",32.827,-97.9847
"Blanket","TX","Texas",48049,"Brown",31.8243,-98.7896
"Thorntonville","TX","Texas",48475,"Ward",31.5789,-102.9221
"Poynor","TX","Texas",48213,"Henderson",32.0793,-95.5924
"Pine Forest","TX","Texas",48361,"Orange",30.1757,-94.0367
"Yancey","TX","Texas",48325,"Medina",29.1442,-99.1438
"Whiteface","TX","Texas",48079,"Cochran",33.5996,-102.6134
"Kennard","TX","Texas",48225,"Houston",31.3575,-95.1853
"Texhoma","TX","Texas",48421,"Sherman",36.4937,-101.7937
"Myra","TX","Texas",48097,"Cooke",33.624,-97.3144
"Sandia","TX","Texas",48249,"Jim Wells",28.0198,-97.8704
"Petrolia","TX","Texas",48077,"Clay",34.0131,-98.2313
"Byers","TX","Texas",48077,"Clay",34.0696,-98.1913
"Wilson","TX","Texas",48305,"Lynn",33.3192,-101.7274
"San Patricio","TX","Texas",48409,"San Patricio",27.9772,-97.7766
"Reklaw","TX","Texas",48401,"Rusk",31.8662,-94.9834
"Bruni","TX","Texas",48479,"Webb",27.4282,-98.8322
"Zuehl","TX","Texas",48187,"Guadalupe",29.496,-98.1535
"Broaddus","TX","Texas",48405,"San Augustine",31.305,-94.2699
"Oak Island","TX","Texas",48071,"Chambers",29.6628,-94.6883
"Skellytown","TX","Texas",48065,"Carson",35.5704,-101.1728
"Latexo","TX","Texas",48225,"Houston",31.3892,-95.4724
"Weir","TX","Texas",48491,"Williamson",30.6759,-97.593
"Morgan Farm","TX","Texas",48409,"San Patricio",28.0055,-97.5535
"Ranchitos del Norte","TX","Texas",48427,"Starr",26.4003,-98.8715
"Tira","TX","Texas",48223,"Hopkins",33.3222,-95.5606
"Hartley","TX","Texas",48205,"Hartley",35.8914,-102.3933
"Bynum","TX","Texas",48217,"Hill",31.9691,-97.0031
"Los Angeles","TX","Texas",48489,"Willacy",26.4947,-97.7862
"Bayside","TX","Texas",48391,"Refugio",28.0966,-97.2109
"Pablo Pena","TX","Texas",48427,"Starr",26.3037,-98.6405
"Coyote Flats","TX","Texas",48251,"Johnson",32.3528,-97.2944
"Cade Lakes","TX","Texas",48051,"Burleson",30.5152,-96.7751
"Iredell","TX","Texas",48035,"Bosque",31.9865,-97.8719
"Woodson","TX","Texas",48447,"Throckmorton",33.0149,-99.0534
"Granjeno","TX","Texas",48215,"Hidalgo",26.1371,-98.3034
"Lockett","TX","Texas",48487,"Wilbarger",34.0826,-99.3738
"Follett","TX","Texas",48295,"Lipscomb",36.434,-100.1408
"Holiday Beach","TX","Texas",48007,"Aransas",28.167,-97.006
"Palisades","TX","Texas",48381,"Randall",35.0614,-101.8032
"Mount Enterprise","TX","Texas",48401,"Rusk",31.9113,-94.6826
"Creedmoor","TX","Texas",48453,"Travis",30.0739,-97.7372
"Douglassville","TX","Texas",48067,"Cass",33.1917,-94.3519
"Howardwick","TX","Texas",48129,"Donley",35.0348,-100.9079
"Streetman","TX","Texas",48161,"Freestone",31.8787,-96.3306
"Goodlow","TX","Texas",48349,"Navarro",32.1091,-96.2152
"Villa Pancho","TX","Texas",48061,"Cameron",25.8844,-97.4157
"Paint Rock","TX","Texas",48095,"Concho",31.5101,-99.9253
"Kendleton","TX","Texas",48157,"Fort Bend",29.4469,-96.0012
"Annona","TX","Texas",48387,"Red River",33.5818,-94.9131
"Bloomburg","TX","Texas",48067,"Cass",33.1378,-94.0591
"Garceno","TX","Texas",48427,"Starr",26.4122,-98.9406
"Gallatin","TX","Texas",48073,"Cherokee",31.8969,-95.152
"El Chaparral","TX","Texas",48427,"Starr",26.3489,-98.7673
"Lakeshore Gardens-Hidden Acres","TX","Texas",48409,"San Patricio",28.1235,-97.8653
"Olmito and Olmito","TX","Texas",48427,"Starr",26.34,-98.642
"South Toledo Bend","TX","Texas",48351,"Newton",31.1568,-93.6074
"Windthorst","TX","Texas",48009,"Archer",33.576,-98.4348
"Grandfalls","TX","Texas",48475,"Ward",31.3405,-102.8544
"Yantis","TX","Texas",48499,"Wood",32.9305,-95.5761
"Barrera","TX","Texas",48427,"Starr",26.3925,-98.8985
"Quitaque","TX","Texas",48045,"Briscoe",34.3674,-101.0556
"Edom","TX","Texas",48467,"Van Zandt",32.3743,-95.6099
"J.F. Villareal","TX","Texas",48427,"Starr",26.4199,-98.9788
"Rancho Chico","TX","Texas",48409,"San Patricio",28.0243,-97.4966
"Covington","TX","Texas",48217,"Hill",32.1784,-97.2603
"Warren City","TX","Texas",48183,"Gregg",32.553,-94.9056
"Huckabay","TX","Texas",48143,"Erath",32.3486,-98.2971
"Ranchitos Las Lomas","TX","Texas",48479,"Webb",27.6282,-99.2345
"Pleasant Valley","TX","Texas",48485,"Wichita",33.9375,-98.5981
"Ranchitos East","TX","Texas",48479,"Webb",27.4901,-99.3668
"Scottsville","TX","Texas",48203,"Harrison",32.5317,-94.2464
"Rochester","TX","Texas",48207,"Haskell",33.3142,-99.8565
"Fayetteville","TX","Texas",48149,"Fayette",29.9063,-96.6758
"Mildred","TX","Texas",48349,"Navarro",32.0411,-96.3483
"La Ward","TX","Texas",48239,"Jackson",28.8465,-96.4649
"Leona","TX","Texas",48289,"Leon",31.1537,-95.976
"Cashion Community","TX","Texas",48485,"Wichita",34.0365,-98.5081
"Santo","TX","Texas",48363,"Palo Pinto",32.6056,-98.2138
"Richland","TX","Texas",48349,"Navarro",31.9177,-96.4265
"Grays Prairie","TX","Texas",48257,"Kaufman",32.4734,-96.3502
"McLeod","TX","Texas",48067,"Cass",32.9455,-94.0776
"Trent","TX","Texas",48441,"Taylor",32.4882,-100.1233
"Kingsbury","TX","Texas",48187,"Guadalupe",29.6541,-97.8
"Bedias","TX","Texas",48185,"Grimes",30.7792,-95.9469
"Mingus","TX","Texas",48363,"Palo Pinto",32.5363,-98.4249
"Anderson","TX","Texas",48185,"Grimes",30.4871,-95.9899
"Avinger","TX","Texas",48067,"Cass",32.898,-94.5533
"Abbott","TX","Texas",48217,"Hill",31.8868,-97.0799
"Christoval","TX","Texas",48451,"Tom Green",31.1976,-100.4933
"La Paloma Addition","TX","Texas",48409,"San Patricio",28.017,-97.5009
"Taylor Landing","TX","Texas",48245,"Jefferson",29.8641,-94.1348
"Goldsmith","TX","Texas",48135,"Ector",31.9832,-102.6163
"Goodrich","TX","Texas",48373,"Polk",30.6092,-94.9467
"Tuleta","TX","Texas",48025,"Bee",28.5767,-97.798
"Camargito","TX","Texas",48427,"Starr",26.3451,-98.7387
"Edroy","TX","Texas",48409,"San Patricio",27.9609,-97.6754
"Barstow","TX","Texas",48475,"Ward",31.4615,-103.3955
"Goree","TX","Texas",48275,"Knox",33.468,-99.5236
"Manuel Garcia","TX","Texas",48427,"Starr",26.3337,-98.7017
"Westbrook","TX","Texas",48335,"Mitchell",32.3571,-101.0133
"Mobile City","TX","Texas",48397,"Rockwall",32.9228,-96.4111
"Richland Springs","TX","Texas",48411,"San Saba",31.2715,-98.9486
"Lake Bridgeport","TX","Texas",48497,"Wise",33.2074,-97.831
"Alfred","TX","Texas",48249,"Jim Wells",27.8742,-97.9799
"Tradewinds","TX","Texas",48409,"San Patricio",27.995,-97.2602
"Nazareth","TX","Texas",48069,"Castro",34.5416,-102.1021
"Progreso Lakes","TX","Texas",48215,"Hidalgo",26.0712,-97.9587
"Midway","TX","Texas",48313,"Madison",31.0252,-95.7539
"Lingleville","TX","Texas",48143,"Erath",32.2432,-98.3767
"Industry","TX","Texas",48015,"Austin",29.9715,-96.4992
"Tynan","TX","Texas",48025,"Bee",28.1708,-97.7492
"Lueders","TX","Texas",48253,"Jones",32.8004,-99.6232
"El Rancho Vela","TX","Texas",48427,"Starr",26.4038,-98.7691
"Eugenio Saenz","TX","Texas",48427,"Starr",26.3583,-98.6331
"Thompsons","TX","Texas",48157,"Fort Bend",29.4906,-95.6304
"Gary City","TX","Texas",48365,"Panola",32.0277,-94.3679
"Hedley","TX","Texas",48129,"Donley",34.8674,-100.659
"Nada","TX","Texas",48089,"Colorado",29.4146,-96.3781
"Carbon","TX","Texas",48133,"Eastland",32.2684,-98.8272
"Garden City","TX","Texas",48173,"Glasscock",31.8673,-101.4863
"Rose Hill Acres","TX","Texas",48199,"Hardin",30.1933,-94.193
"Callisburg","TX","Texas",48097,"Cooke",33.6987,-97.0159
"Morgan's Point","TX","Texas",48201,"Harris",29.6765,-95.0027
"Iola","TX","Texas",48185,"Grimes",30.7719,-96.0771
"Wellman","TX","Texas",48445,"Terry",33.047,-102.4275
"Del Sol","TX","Texas",48409,"San Patricio",28.0132,-97.5202
"Weston","TX","Texas",48085,"Collin",33.33,-96.6676
"Havana","TX","Texas",48215,"Hidalgo",26.2507,-98.509
"Chester","TX","Texas",48457,"Tyler",30.9214,-94.6002
"North Cleveland","TX","Texas",48291,"Liberty",30.3576,-95.1004
"San Carlos II","TX","Texas",48479,"Webb",27.4901,-99.3684
"Darrouzett","TX","Texas",48295,"Lipscomb",36.4447,-100.3258
"Morse","TX","Texas",48195,"Hansford",36.066,-101.4769
"Ross","TX","Texas",48309,"McLennan",31.7282,-97.1123
"Turkey","TX","Texas",48191,"Hall",34.3939,-100.8953
"Channing","TX","Texas",48205,"Hartley",35.6819,-102.3322
"Fronton","TX","Texas",48427,"Starr",26.4255,-99.0761
"Blessing","TX","Texas",48321,"Matagorda",28.8728,-96.2172
"Montague","TX","Texas",48337,"Montague",33.6653,-97.7209
"San Carlos I","TX","Texas",48479,"Webb",27.4906,-99.3726
"Bishop Hills","TX","Texas",48375,"Potter",35.2614,-101.9519
"Imperial","TX","Texas",48371,"Pecos",31.2668,-102.6947
"Green Valley Farms","TX","Texas",48061,"Cameron",26.1219,-97.561
"Sanctuary","TX","Texas",48367,"Parker",32.9132,-97.5877
"Marquez","TX","Texas",48289,"Leon",31.2361,-96.2574
"La Escondida","TX","Texas",48427,"Starr",26.3807,-98.8737
"Alice Acres","TX","Texas",48249,"Jim Wells",27.7119,-98.108
"Coffee City","TX","Texas",48213,"Henderson",32.1383,-95.4871
"Laguna Seca","TX","Texas",48215,"Hidalgo",26.2793,-97.9262
"Carmine","TX","Texas",48149,"Fayette",30.1485,-96.6908
"Benjamin","TX","Texas",48275,"Knox",33.5836,-99.7929
"Dime Box","TX","Texas",48287,"Lee",30.355,-96.8233
"Bailey","TX","Texas",48147,"Fannin",33.4337,-96.1651
"Gause","TX","Texas",48331,"Milam",30.7874,-96.7224
"Bonney","TX","Texas",48039,"Brazoria",29.3013,-95.4508
"Enchanted Oaks","TX","Texas",48213,"Henderson",32.2667,-96.109
"Opdyke West","TX","Texas",48219,"Hockley",33.5927,-102.3006
"Tierra Verde","TX","Texas",48355,"Nueces",27.7616,-97.7174
"Washburn","TX","Texas",48011,"Armstrong",35.1692,-101.57
"Tilden","TX","Texas",48311,"McMullen",28.46,-98.5487
"Megargel","TX","Texas",48009,"Archer",33.4535,-98.9298
"May","TX","Texas",48049,"Brown",31.9798,-98.9247
"Cranfills Gap","TX","Texas",48035,"Bosque",31.7753,-97.8302
"Zapata Ranch","TX","Texas",48489,"Willacy",26.357,-97.8243
"Staples","TX","Texas",48187,"Guadalupe",29.7664,-97.8279
"Tehuacana","TX","Texas",48293,"Limestone",31.7411,-96.5436
"Orchard","TX","Texas",48157,"Fort Bend",29.6035,-95.969
"La Feria North","TX","Texas",48061,"Cameron",26.1778,-97.8232
"Thompsonville","TX","Texas",48247,"Jim Hogg",27.2601,-98.7847
"Pecan Gap","TX","Texas",48119,"Delta",33.4382,-95.8519
"Mound","TX","Texas",48099,"Coryell",31.3505,-97.6432
"Rochelle","TX","Texas",48307,"McCulloch",31.2232,-99.2066
"Chula Vista","TX","Texas",48061,"Cameron",26.0739,-97.4397
"Wixon Valley","TX","Texas",48041,"Brazos",30.7639,-96.3193
"Welch","TX","Texas",48115,"Dawson",32.9306,-102.1256
"Utopia","TX","Texas",48463,"Uvalde",29.6188,-99.5153
"Hilltop","TX","Texas",48163,"Frio",28.6938,-99.1761
"San Pedro","TX","Texas",48061,"Cameron",25.9812,-97.5882
"Country Acres","TX","Texas",48409,"San Patricio",27.9251,-97.1661
"Neylandville","TX","Texas",48231,"Hunt",33.2006,-96.0054
"La Presa","TX","Texas",48479,"Webb",27.3995,-99.4374
"Tanquecitos South Acres","TX","Texas",48479,"Webb",27.4898,-99.3797
"Shelbyville","TX","Texas",48419,"Shelby",31.7594,-94.0772
"E. Lopez","TX","Texas",48427,"Starr",26.3087,-98.6379
"Melvin","TX","Texas",48307,"McCulloch",31.1993,-99.5809
"Zephyr","TX","Texas",48049,"Brown",31.6791,-98.7911
"Rowena","TX","Texas",48399,"Runnels",31.6442,-100.0481
"Owl Ranch","TX","Texas",48249,"Jim Wells",27.8927,-98.0934
"Eureka","TX","Texas",48349,"Navarro",32.012,-96.2856
"Christine","TX","Texas",48013,"Atascosa",28.7862,-98.4978
"Roaring Springs","TX","Texas",48345,"Motley",33.8992,-100.8561
"Weinert","TX","Texas",48207,"Haskell",33.3234,-99.6736
"Neches","TX","Texas",48001,"Anderson",31.8688,-95.4917
"Jolly","TX","Texas",48077,"Clay",33.8827,-98.3475
"Loop","TX","Texas",48165,"Gaines",32.9142,-102.4147
"Los Alvarez","TX","Texas",48427,"Starr",26.3859,-98.899
"Mirando City","TX","Texas",48479,"Webb",27.4401,-99.0006
"Allison","TX","Texas",48483,"Wheeler",35.612,-100.1115
"La Victoria","TX","Texas",48427,"Starr",26.3478,-98.6296
"Sandy Point","TX","Texas",48039,"Brazoria",29.4013,-95.4816
"Emhouse","TX","Texas",48349,"Navarro",32.1607,-96.5772
"Tierra Grande","TX","Texas",48355,"Nueces",27.7037,-97.5718
"Mullin","TX","Texas",48333,"Mills",31.5551,-98.6657
"Penelope","TX","Texas",48217,"Hill",31.8585,-96.9281
"Dickens","TX","Texas",48125,"Dickens",33.6213,-100.8368
"San Isidro","TX","Texas",48427,"Starr",26.7136,-98.4479
"Nesbitt","TX","Texas",48203,"Harrison",32.5886,-94.4469
"Navarro","TX","Texas",48349,"Navarro",32.0008,-96.3825
"East Columbia","TX","Texas",48039,"Brazoria",29.1396,-95.6143
"Blackwell","TX","Texas",48353,"Nolan",32.0851,-100.3194
"B and E","TX","Texas",48427,"Starr",26.3565,-98.7537
"Lake View","TX","Texas",48465,"Val Verde",29.459,-100.9532
"Campo Verde","TX","Texas",48427,"Starr",26.3916,-98.914
"Ellinger","TX","Texas",48149,"Fayette",29.8394,-96.7053
"Ranchette Estates","TX","Texas",48489,"Willacy",26.4844,-97.822
"North Escobares","TX","Texas",48427,"Starr",26.4325,-98.9719
"Lake Meredith Estates","TX","Texas",48233,"Hutchinson",35.6639,-101.6027
"Brazos","TX","Texas",48363,"Palo Pinto",32.6622,-98.1231
"Gail","TX","Texas",48033,"Borden",32.767,-101.4465
"Palo Pinto","TX","Texas",48363,"Palo Pinto",32.7692,-98.3007
"Study Butte","TX","Texas",48043,"Brewster",29.335,-103.5421
"Ringgold","TX","Texas",48337,"Montague",33.8144,-97.9424
"South Frydek","TX","Texas",48015,"Austin",29.7318,-96.0738
"Arroyo Gardens","TX","Texas",48061,"Cameron",26.2052,-97.5021
"Coyanosa","TX","Texas",48371,"Pecos",31.2409,-103.0648
"Loma Grande","TX","Texas",48507,"Zavala",28.7221,-99.8327
"Sarita","TX","Texas",48261,"Kenedy",27.2235,-97.7955
"Guthrie","TX","Texas",48269,"King",33.6215,-100.329
"Moran","TX","Texas",48417,"Shackelford",32.5471,-99.1663
"Tow","TX","Texas",48299,"Llano",30.8889,-98.4631
"Priddy","TX","Texas",48333,"Mills",31.676,-98.5114
"Petty","TX","Texas",48277,"Lamar",33.6034,-95.8055
"Edgewater Estates","TX","Texas",48409,"San Patricio",28.0969,-97.865
"Fronton Ranchettes","TX","Texas",48427,"Starr",26.4253,-99.0268
"Spring Branch","TX","Texas",48091,"Comal",29.8849,-98.4127
"Bivins","TX","Texas",48067,"Cass",33.0174,-94.193
"Damon","TX","Texas",48039,"Brazoria",29.2832,-95.7408
"Airport Road Addition","TX","Texas",48047,"Brooks",27.219,-98.0981
"Chaparrito","TX","Texas",48427,"Starr",26.3408,-98.7354
"Boys Ranch","TX","Texas",48359,"Oldham",35.5332,-102.2537
"Wildorado","TX","Texas",48359,"Oldham",35.2091,-102.2055
"Hays","TX","Texas",48209,"Hays",30.1214,-97.8725
"El Quiote","TX","Texas",48427,"Starr",26.3845,-98.9084
"Airport Heights","TX","Texas",48427,"Starr",26.4087,-98.8367
"Aquilla","TX","Texas",48217,"Hill",31.8548,-97.22
"Cool","TX","Texas",48367,"Parker",32.8001,-98.0113
"Moore Station","TX","Texas",48213,"Henderson",32.1905,-95.5704
"Paige","TX","Texas",48021,"Bastrop",30.2138,-97.1211
"Pyote","TX","Texas",48475,"Ward",31.538,-103.1225
"Dodson","TX","Texas",48087,"Collingsworth",34.7654,-100.0204
"Miguel Barrera","TX","Texas",48427,"Starr",26.412,-98.9216
"Ravenna","TX","Texas",48147,"Fannin",33.6705,-96.2409
"Richards","TX","Texas",48185,"Grimes",30.5366,-95.8462
"Bledsoe","TX","Texas",48079,"Cochran",33.6182,-103.0181
"Delmita","TX","Texas",48427,"Starr",26.6852,-98.4231
"Port Mansfield","TX","Texas",48489,"Willacy",26.5623,-97.4365
"Cuney","TX","Texas",48073,"Cherokee",32.0374,-95.4147
"Windom","TX","Texas",48147,"Fannin",33.5648,-95.9985
"Harrold","TX","Texas",48487,"Wilbarger",34.0756,-99.0271
"Springlake","TX","Texas",48279,"Lamb",34.2317,-102.3057
"Terlingua","TX","Texas",48043,"Brewster",29.2991,-103.5796
"Caney City","TX","Texas",48213,"Henderson",32.2096,-96.0381
"Sammy Martinez","TX","Texas",48427,"Starr",26.4329,-98.7512
"Adrian","TX","Texas",48359,"Oldham",35.2741,-102.6672
"Amargosa","TX","Texas",48249,"Jim Wells",27.8916,-98.1086
"Loma Linda","TX","Texas",48409,"San Patricio",28.007,-97.4994
"Seven Oaks","TX","Texas",48373,"Polk",30.8518,-94.8578
"Moore","TX","Texas",48163,"Frio",29.0574,-99.0069
"Rangerville","TX","Texas",48061,"Cameron",26.105,-97.7373
"Kopperl","TX","Texas",48035,"Bosque",32.07,-97.4991
"Iglesia Antigua","TX","Texas",48061,"Cameron",26.0748,-97.8342
"Benjamin Perez","TX","Texas",48427,"Starr",26.406,-98.8997
"Round Top","TX","Texas",48149,"Fayette",30.0639,-96.6957
"Kirvin","TX","Texas",48161,"Freestone",31.7671,-96.33
"Miller's Cove","TX","Texas",48449,"Titus",33.156,-95.1147
"Round Mountain","TX","Texas",48031,"Blanco",30.4299,-98.3607
"Redfield","TX","Texas",48347,"Nacogdoches",31.6811,-94.6629
"Todd Mission","TX","Texas",48185,"Grimes",30.2613,-95.8298
"Salineo North","TX","Texas",48427,"Starr",26.5254,-99.0906
"Novice","TX","Texas",48083,"Coleman",31.9872,-99.6253
"Waka","TX","Texas",48357,"Ochiltree",36.2816,-101.0441
"Wingate","TX","Texas",48399,"Runnels",32.0455,-100.104
"Los Altos","TX","Texas",48479,"Webb",27.4904,-99.3858
"Edmonson","TX","Texas",48189,"Hale",34.2791,-101.8967
"Quemado","TX","Texas",48323,"Maverick",28.9471,-100.6238
"Austwell","TX","Texas",48391,"Refugio",28.3911,-96.8435
"Butterfield","TX","Texas",48141,"El Paso",31.8426,-106.0822
"La Coma Heights","TX","Texas",48215,"Hidalgo",26.4394,-98.0747
"Powell","TX","Texas",48349,"Navarro",32.1128,-96.3236
"Magnolia Beach","TX","Texas",48057,"Calhoun",28.5568,-96.5465
"Oilton","TX","Texas",48479,"Webb",27.4693,-98.9672
"El Castillo","TX","Texas",48427,"Starr",26.3348,-98.6391
"Browndell","TX","Texas",48241,"Jasper",31.1254,-93.9802
"La Rosita","TX","Texas",48427,"Starr",26.4017,-98.9322
"Sanford","TX","Texas",48233,"Hutchinson",35.7026,-101.5319
"Estelline","TX","Texas",48191,"Hall",34.547,-100.44
"Loma Linda West","TX","Texas",48427,"Starr",26.4205,-98.9304
"Loving","TX","Texas",48503,"Young",33.2628,-98.5156
"O'Brien","TX","Texas",48207,"Haskell",33.3802,-99.8438
"Hungerford","TX","Texas",48481,"Wharton",29.404,-96.0837
"Rocky Mound","TX","Texas",48063,"Camp",33.029,-95.029
"Falcon Mesa","TX","Texas",48505,"Zapata",26.8706,-99.2907
"Las Lomitas","TX","Texas",48247,"Jim Hogg",27.3378,-98.6629
"Box Canyon","TX","Texas",48465,"Val Verde",29.5335,-101.1586
"Mobeetie","TX","Texas",48483,"Wheeler",35.5291,-100.4394
"Mertens","TX","Texas",48217,"Hill",32.0588,-96.8937
"Ratamosa","TX","Texas",48061,"Cameron",26.2006,-97.8445
"Toyah","TX","Texas",48389,"Reeves",31.3125,-103.7946
"Uncertain","TX","Texas",48203,"Harrison",32.7064,-94.1269
"Pena","TX","Texas",48427,"Starr",26.4155,-98.97
"Driftwood","TX","Texas",48209,"Hays",30.133,-98.0373
"Putnam","TX","Texas",48059,"Callahan",32.3703,-99.1955
"Radar Base","TX","Texas",48323,"Maverick",28.8568,-100.5336
"Lago","TX","Texas",48061,"Cameron",26.0885,-97.6132
"Pawnee","TX","Texas",48025,"Bee",28.6483,-98.0083
"Woodloch","TX","Texas",48339,"Montgomery",30.2173,-95.4132
"H. Cuellar Estates","TX","Texas",48427,"Starr",26.5611,-99.1258
"Marietta","TX","Texas",48067,"Cass",33.1735,-94.5425
"Fluvanna","TX","Texas",48415,"Scurry",32.8833,-101.1415
"Catarina","TX","Texas",48127,"Dimmit",28.3499,-99.6161
"Realitos","TX","Texas",48131,"Duval",27.4454,-98.5303
"Lasana","TX","Texas",48061,"Cameron",26.2585,-97.695
"Dell City","TX","Texas",48229,"Hudspeth",31.9349,-105.1998
"La Carla","TX","Texas",48427,"Starr",26.4354,-98.7406
"Westdale","TX","Texas",48249,"Jim Wells",27.9657,-97.9937
"Bluff Dale","TX","Texas",48143,"Erath",32.3497,-98.0249
"La Minita","TX","Texas",48427,"Starr",26.5024,-99.0735
"Valentine","TX","Texas",48243,"Jeff Davis",30.5886,-104.4953
"Normanna","TX","Texas",48025,"Bee",28.5277,-97.7831
"Del Mar Heights","TX","Texas",48061,"Cameron",26.0567,-97.4236
"Petronila","TX","Texas",48355,"Nueces",27.6713,-97.6322
"Yznaga","TX","Texas",48061,"Cameron",26.3188,-97.8153
"Oklaunion","TX","Texas",48487,"Wilbarger",34.1294,-99.1443
"Shiro","TX","Texas",48185,"Grimes",30.6087,-95.8862
"Colorado Acres","TX","Texas",48479,"Webb",27.6449,-99.2143
"Villa Verde","TX","Texas",48215,"Hidalgo",26.1303,-97.9956
"Whitharral","TX","Texas",48219,"Hockley",33.7391,-102.3278
"Buena Vista","TX","Texas",48427,"Starr",26.2941,-98.6109
"Umbarger","TX","Texas",48381,"Randall",34.9564,-102.1094
"Salineo","TX","Texas",48427,"Starr",26.5176,-99.112
"Encino","TX","Texas",48047,"Brooks",26.9364,-98.1152
"Fowlerton","TX","Texas",48283,"La Salle",28.4608,-98.8114
"La Esperanza","TX","Texas",48427,"Starr",26.4313,-98.8923
"Pinebrook","TX","Texas",48185,"Grimes",30.3125,-95.8767
"Praesel","TX","Texas",48331,"Milam",30.631,-97.0211
"Sun Valley","TX","Texas",48277,"Lamar",33.6705,-95.4287
"Garciasville","TX","Texas",48427,"Starr",26.3198,-98.6997
"Midfield","TX","Texas",48321,"Matagorda",28.9404,-96.2132
"Longoria","TX","Texas",48427,"Starr",26.3024,-98.6425
"Tierra Bonita","TX","Texas",48061,"Cameron",26.2727,-97.8276
"Proctor","TX","Texas",48093,"Comanche",31.9867,-98.4304
"Quesada","TX","Texas",48427,"Starr",26.2819,-98.5819
"Spade","TX","Texas",48279,"Lamb",33.926,-102.1543
"Lelia Lake","TX","Texas",48129,"Donley",34.9015,-100.7699
"Perrin","TX","Texas",48237,"Jack",33.0348,-98.0693
"Bonanza Hills","TX","Texas",48479,"Webb",27.7948,-99.4695
"Ramos","TX","Texas",48427,"Starr",26.428,-99.027
"Guadalupe Guerra","TX","Texas",48427,"Starr",26.4108,-99.0819
"Amaya","TX","Texas",48507,"Zavala",28.7121,-99.8353
"Dayton Lakes","TX","Texas",48291,"Liberty",30.1446,-94.8208
"Amistad","TX","Texas",48465,"Val Verde",29.5245,-101.1531
"Alanreed","TX","Texas",48179,"Gray",35.2117,-100.7325
"Ben Arnold","TX","Texas",48331,"Milam",30.9589,-96.9731
"Las Palmas","TX","Texas",48505,"Zapata",26.9515,-99.276
"Brookston","TX","Texas",48277,"Lamar",33.6232,-95.7001
"Palo Blanco","TX","Texas",48427,"Starr",26.3876,-98.9024
"La Moca Ranch","TX","Texas",48479,"Webb",27.902,-99.5036
"Redford","TX","Texas",48377,"Presidio",29.4342,-104.1824
"Los Veteranos I","TX","Texas",48479,"Webb",27.6333,-99.2186
"Lopeo","TX","Texas",48505,"Zapata",26.7118,-99.101
"Spofford","TX","Texas",48271,"Kinney",29.1733,-100.4112
"Paisano Park","TX","Texas",48409,"San Patricio",28.0951,-97.8592
"Sylvester","TX","Texas",48151,"Fisher",32.7221,-100.2507
"Toco","TX","Texas",48277,"Lamar",33.6539,-95.6492
"Sheffield","TX","Texas",48371,"Pecos",30.6859,-101.8224
"Normandy","TX","Texas",48323,"Maverick",28.9099,-100.598
"South Fork Estates","TX","Texas",48247,"Jim Hogg",27.2697,-98.7239
"Los Huisaches","TX","Texas",48479,"Webb",27.907,-99.4758
"El Brazil","TX","Texas",48427,"Starr",26.4686,-98.7269
"Loma Vista","TX","Texas",48427,"Starr",26.4169,-98.9814
"Acala","TX","Texas",48229,"Hudspeth",31.3344,-105.9028
"Harwood","TX","Texas",48177,"Gonzales",29.6664,-97.5018
"McCaulley","TX","Texas",48151,"Fisher",32.7786,-100.2052
"Los Arcos","TX","Texas",48479,"Webb",27.6144,-99.2105
"La Coma","TX","Texas",48479,"Webb",27.5029,-99.3014
